STN NO,NYEAR,INDEX,STATION NAME,LAT,LON,ELEVATION,DIST_COAST,av_an_tmax,WET_SPL,DRY_APL,D_MAX_RF,AMT_WET_SPL,AMT_MON,WDAY_MON,AMT_AU,AMT_WIN,AMT_SP,AMT_SU,WDAY_AU,WDAY_WIN,WDAY_SP,WDAY_SU,AN_WET_DYS,AN_RAINFALL,AMT/WDAY
1,70,46002,WANAARING,-29.766,143.114,118,594.7,27.61,3.29,65.84,44.03,42.54,19.26,2.16,52.98,45.52,54.19,78.25,6.01,6.74,6.99,6.16,25.9,230.94,8.93
2,118,46003,YANCO,-31.287,141.444,233,369.73,25.02,3.29,66.39,37.01,29.28,17.07,2.37,47.53,48.73,49.86,58.47,5.86,8.98,7.34,6.2,28.38,204.59,7.18
3,53,46052,WANAARING,-29.409,143.381,115,635.79,27.95,3.57,67.42,45.65,44.86,19.83,2.37,56.61,47.96,51.58,81.45,6.4,7.23,7.4,7.41,28.44,237.6,8.27
4,27,46063,GEMVILLE,-30.9,143,153,522.15,26.81,3.7,52.81,39.56,36.2,17.57,3.2,42.78,48.74,51.91,68.56,7.74,12.41,9.22,9.07,38.44,211.99,5.69
5,39,46085,YALPUNGA,-29,142,163,558.81,27.68,3.8,77.61,35.2,36.44,14,2.26,35.42,38.14,32.85,63.08,5.9,7.51,6.36,7.51,27.28,169.49,6.55
6,36,46106,TINAPAGEE,-29.467,144.383,125,715.34,27.95,4.14,58.44,51.84,52.02,25.7,2.91,74.51,55.06,72.31,107.03,8.03,9.03,9.28,8.61,34.95,308.91,8.76
7,30,46107,BROKEN,-31.62,142.291,120,431.25,26.20,2.97,66.2,42.66,28.12,18.4,2.04,46.18,51.04,57.16,65.88,5.03,7.43,6.83,5.17,24.46,220.26,8.95
8,35,46115,TILPA,-31.389,144.042,90,595.4,26.89,3.8,66.03,51.12,38.03,23.57,2.72,69.93,59.17,69.04,83.94,7.51,9.71,8.89,6.49,32.6,282.08,8.63
9,62,46117,BROKEN,-31.484,142.331,160,440.89,25.60,3.02,79.77,41.69,33.39,17.56,1.88,50.62,44.6,49.49,65.99,5.24,7.21,5.6,4.58,22.63,210.7,9.79
10,42,46118,ANNALARA,-31.267,144.033,83.8,599.38,26.63,3.19,62.1,38.73,39.02,19.5,2.21,56.53,49.75,55.71,72.34,6.41,7.33,6.59,6.26,26.59,234.33,8.84
11,77,47015,KINCHEGA,-32.45,142.4,61,413.77,25.48,3.49,56.88,38.75,30.62,18.51,2.73,54.4,55.32,56.63,55.88,7.39,10.95,8.18,6.25,32.77,222.23,6.87
12,86,47016,LAKE,-34.04,141.265,43,266.23,23.89,4.72,42.62,32.99,25.75,21.5,5.04,54.96,72.13,74.46,56.29,12.94,23.06,15.77,8.73,60.5,257.84,4.27
13,117,47031,BROKEN,-31.88,141.593,238,359.07,24.51,4.23,50.57,36.96,35.99,18.38,3.54,50.42,48.29,57.25,64.3,9.16,13.41,11.34,8.52,42.43,220.26,5.24
14,111,47037,BROKEN,-31.89,141.99,146,393.49,25.41,3.42,61.32,36.55,31.92,17.13,2.51,46.26,43.27,50.99,65.12,6.67,9.06,7.8,6.63,30.16,205.64,6.83
15,75,47045,WENTWORTH,-33.334,141.769,44,355.98,24.73,4.49,42.95,39.74,26.9,21.28,4.43,56.54,63.91,66.4,68.18,11.12,18.69,14.05,9.21,53.07,255.03,4.76
16,45,47058,MENINDEE,-32.39,142.416,64,416.6,25.72,4.33,52.02,40.28,36.51,21.76,3.87,57.57,57.06,68.15,77.83,9.29,15.29,12.93,8.82,46.33,260.61,5.49
17,47,47060,SILISTRIA,-32,142.217,157,409.67,25.17,2.85,69.32,30.79,24.59,13.27,2.06,37.23,39.55,38.9,43.2,5.64,7.85,5.91,5.34,24.74,158.88,6.36
18,25,47088,THACKARINGA,-32,141.1,218,311,24.39,4.36,53.12,40.12,23.83,18.27,3.1,43.19,63.59,66.14,46.14,8.04,13.52,9.84,5.84,37.24,219.06,5.93
19,118,48013,BOURKE,-30.092,145.936,106,626.19,27.53,4.45,46.13,51.02,49.36,29.34,3.87,91.89,70.58,75.62,113.93,10.44,12.22,11.69,12.05,46.4,352.02,7.5
20,90,48018,COLLARENEBRI,-29.538,148.405,140,487.47,27.43,4.84,43.12,65.51,70.59,41.14,4.3,118.88,89.22,110.36,175.39,10.71,12.54,13.31,15.07,51.63,493.85,9.52
21,112,48020,MUNGINDI,-29.036,148.646,168,452.91,27.69,4.69,51.51,60.31,67.07,39.6,3.54,109.75,93.29,101,171.28,8.93,10.12,10.65,12.76,42.46,475.32,11.63
22,46,48027,COBAR,-31.484,145.829,260,552.52,25.67,4.74,38.7,49.86,51.5,33.06,5.2,94.73,82.46,95.33,125.14,13.65,17.67,16.96,14.11,62.39,397.66,6.28
23,76,48029,CLOVER,-30.45,145.3,103.6,652.72,27.26,4.5,42.99,43.05,41.41,25.77,3.92,78.56,65.49,68.59,96.91,10.66,13.57,11.55,11.28,47.06,309.55,6.45
24,84,48030,COBAR,-31.5,145.8,250.5,554.28,25.40,4.55,41.95,41.81,43.85,29.39,4.43,83.75,84.32,81.47,103.15,11.64,16.34,13.12,11.99,53.09,352.69,6.63
25,127,48036,WALGETT,-29.664,148.115,137,494.59,27.47,4.22,49,61.67,53.72,38.13,3.45,105.53,88.19,101.8,162.01,8.96,10.53,10.32,11.59,41.4,457.53,11.12
26,122,48053,COBAR,-31.699,145.704,195,553.62,25.76,3.73,49.71,43.21,40.43,28.88,3.36,84.81,80.98,81.38,99.36,8.99,12.25,10.02,9.11,40.37,346.53,8.91
27,36,48096,COBAR,-31.441,145.35,190,595.87,25.97,3.94,45.39,52.75,40.59,30.04,3.64,98.44,73.09,83.92,105.46,10.22,12.83,10.69,10.03,43.77,360.91,8.1
28,26,48110,NEW,-29.1,147.883,143,520.18,27.80,3.92,59.85,49.12,59.36,30.13,2.81,76.35,84.57,82.9,119.7,6.42,9.11,8.58,9.65,33.76,363.52,10.63
29,50,48112,PARRAGUNDY,-29,144.8,133,777.58,27.89,4.02,60.86,48.13,44.48,22.77,2.82,66.87,57.37,59.04,89.77,7.82,8.5,8.98,8.56,33.86,273.05,8.02
30,40,48162,COBAR,-31.167,146.133,250,543.23,25.45,4.43,46.5,50.23,44.11,30.89,4.02,76.82,87.31,85.87,118.76,9.93,15.25,11.35,11.63,48.16,368.76,7.63
31,42,48176,BREWARRINA,-29.974,147.049,122,546.22,27.30,4.81,49.62,58.98,59.46,36.23,4.01,112.6,77.01,92.41,152.34,10.57,12.36,12.05,13.26,48.24,434.36,8.88
32,36,48200,WANAARING,-29.44,144.391,115,717.62,28.07,3.86,64.36,53.34,48.19,25.84,2.55,77.66,59.34,75.76,97.27,6.89,7.69,8.19,7.83,30.6,310.03,9.81
33,92,49013,EUSTON,-34.583,142.733,61,328.66,23.93,4.85,40.95,36.79,30.89,25.93,5.2,73.33,90.63,83.38,63.87,13.16,24,16.65,8.52,62.33,311.21,5.02
34,73,49023,EUSTON,-34.452,142.911,64,350.23,24.04,4.08,43.93,40.57,31.25,26.72,4.67,73.9,82.83,89.04,75.09,11.38,21.26,15.14,8.36,56.14,320.86,6
35,41,49035,NATUE,-33.8,144.7,90,449.04,24.42,4.44,52.58,39.23,38.37,24.43,3.54,64.26,81.88,77.92,68.43,8.9,15.73,10.27,7.59,42.49,292.49,6.97
36,33,49046,TAPALIN,-34.55,142.5,63,312.87,23.80,5.27,38.18,33.87,23.4,23.86,5.54,61.07,82.12,80.02,63.68,13.48,25.33,17.85,9.88,66.54,286.89,4.47
37,85,49047,HATFIELD,-33.692,143.803,74,471.58,24.79,3.66,51.17,39.32,33.85,23.66,3.28,69.2,69.08,72.64,72.69,8.88,12.91,10.47,7.15,39.41,283.61,7.21
38,40,49054,VIETA,-33.4,145.1,104,493.21,24.50,4.18,48.97,38.11,35.06,26.04,3.71,83.01,77.76,80.18,71.64,10.57,15.4,10.75,7.78,44.5,312.59,7.06
39,51,49086,GILGUNNIA,-32.383,146.033,288,505.47,24.21,4,47.55,37.2,34.99,26.78,3.48,66.84,89.22,73.27,90.63,8.84,13.74,9.77,9.26,41.61,319.96,7.82
40,43,49098,BEDOOBA,-32.333,145.917,243.8,517.66,24.33,4.21,47.4,42.48,37.19,29.85,3.7,80.91,93.51,90.11,93.85,9.51,15,10.72,9.14,44.37,358.38,8.3
41,49,49111,EUSTON,-33.945,143.053,79,393.91,24.45,3.67,47.29,36.36,29.06,23.86,3.95,64.49,70.61,76.94,73.71,10.18,16.61,12.82,7.76,47.37,285.75,6.11
42,74,49118,BOOLIGAL,-33.707,144.767,91,459.09,24.63,4.16,51.49,40.23,31.84,26.47,3.82,80.91,77.25,80.77,78.72,10.15,15.88,11.65,8.15,45.83,317.65,6.96
43,25,49130,HILLSTON,-33.384,145.959,135,503.45,24.68,4.32,46.32,46.55,32.43,31.61,4.39,93.1,97.1,96.12,92.6,10.6,18.48,13.72,9.76,52.56,378.92,7.22
44,68,50000,NARROMINE,-32.3,147.7,231.6,353.98,24.77,5.09,36.9,53.83,49.89,40.29,4.93,120.16,120.3,108.53,134.57,13,19.68,13.85,12.68,59.21,483.56,8.11
45,67,50002,GOONUMBLA,-32.917,148.093,274,298.14,23.93,5.93,29.85,56.53,54.35,48.32,6.74,141.57,130.06,148.7,159.67,17.78,24.91,20.97,17.28,80.94,580,7.05
46,57,50009,BULGANDRAMINE,-32.6,148.1,253,306.74,24.54,4.46,43.98,58.1,55.39,41.84,4.08,127.56,127.02,108.54,140.01,11,15.79,11.33,10.91,49.03,503.13,10.71
47,126,50016,GOONUMBLA,-32.974,148.063,290,298.18,24.03,4.87,36.44,53.55,46.09,43.9,5.09,125.19,129.22,127.5,144.73,12.82,19.61,15.59,13.07,61.09,526.64,8.58
48,32,50027,MULGUTHERIE,-33.2,147.4,202,348.72,24.62,4.91,35.22,44.51,41.24,35.41,5.35,107.43,105.24,98.64,114.83,14.91,21.94,15.41,11.91,64.17,426.14,6.61
49,118,50031,PEAK,-32.723,148.19,285,294.26,24.50,5.09,33.7,57.68,56.18,47.1,5.64,138.54,131.69,134.04,160.68,14.5,21.02,17.5,14.63,67.65,564.95,8.37
50,70,50033,ALBERT,-32.333,147.4,244,378.75,24.52,5.6,33.37,51.55,52.61,41.03,5.74,107.47,114.97,118.29,152.1,15.26,21.3,17.01,15.29,68.86,492.83,7.08
51,37,50041,TULLIBIGEAL,-33.383,146.9,260,379.07,24.41,4.54,39.6,48.16,44.4,35.88,4.72,97.57,120.47,95.31,116.97,11.84,20.73,13.4,10.76,56.73,430.32,7.67
52,54,50046,YELLOW,-32.5,146.8,573,439.48,24.35,4.41,46.78,44.14,46.57,31.8,3.63,92.46,97.71,81.92,109.57,10.26,13.67,9.91,9.78,43.62,381.66,8.79
53,54,50052,CONDOBOLIN,-33.066,147.228,195,370.24,24.24,5.5,32.87,49.23,36.65,38.41,6.29,106.86,102.27,120.18,131.51,16.09,24.68,19.57,15.15,75.49,460.82,6.05
54,48,50054,CONDOBOLIN,-33.103,146.847,180,398.28,24.52,3.83,48.4,52.55,41.04,35.69,3.87,96.64,105.28,112.92,114.64,10.04,15.1,12.35,8.98,46.47,429.48,9.19
55,29,50056,TRANGIE,-32.122,147.617,203,369.29,24.91,4.38,50.59,54.92,58.41,37.67,4.03,114.65,90.14,106.3,136.04,10.86,13.45,13.28,10.59,48.18,447.13,9.41
56,36,50064,LAKE,-33.7,147.4,221,335.95,24.19,6.33,35.72,45.89,35.53,37.88,6.47,106.17,127.12,108.2,113.43,14.86,30.08,19.39,13.28,77.61,454.92,5.89
57,34,50084,YOUNGARA,-33.783,146.95,263,362.29,23.56,5.53,35.5,46.65,32.83,34.39,5.96,98.46,109.8,97,107.57,15.47,26.15,17.5,12.47,71.59,412.83,5.7
58,31,50092,WARGE,-32.517,147.783,222,337.85,24.95,4.97,37.84,55.21,52.67,44.24,4.75,140.88,138.65,107.71,144.86,12.71,19.26,13.42,11.81,57.2,532.1,9.56
59,29,50093,WYOMING,-32.067,147.45,194,386.14,25.13,4,47.97,55.38,61.07,38.53,3.7,128.12,112.64,94.56,130.02,10.72,13.55,10.03,10.21,44.51,465.34,10.51
60,26,50096,DOBROYDE,-32.3,147.483,240,372.82,24.86,4.81,41,50.27,46.94,37.35,4.41,120.25,115.59,93.8,117.56,11.46,18.04,12.27,11.27,53.04,447.2,8.65
61,30,50103,WEST,-33.938,147.19,262,334.22,23.45,4.9,35.7,42.7,32.11,34.39,5.53,92.22,113.59,110.17,95.02,13.27,23.53,17.63,11.7,66.13,411,6.19
62,40,50108,WILMATHA,-32.572,147.216,257,388.8,24.37,4.8,39.28,64.14,56.26,41.09,5.22,112.77,104.85,121.16,152.46,13.48,18.1,17.58,13.43,62.59,491.24,7.79
63,48,50110,PEAK,-32.636,148.058,242,309.12,24.42,5.35,36.69,52.1,51.58,44.38,5.69,129.13,114.25,136.27,152.9,14.56,19.94,18.67,15.02,68.19,532.55,7.73
64,37,50115,ALECTOWN,-32.857,148.258,320,287.13,23.93,5.27,38.97,51.57,55.02,46.47,5.41,128.62,128.47,144.74,155.02,13.38,20.73,17.27,13.49,64.87,556.85,8.55
65,39,51012,EDITHVILLE,-31.9,148.1,214,341.24,25.08,4.59,45.21,53.25,49.76,36.16,4.13,106.34,109.73,96.46,121.26,10.54,15.97,11.64,11.28,49.43,433.79,8.84
66,99,51014,GULARGAMBONE,-31.125,148.038,177,398.23,25.99,4.43,51.88,55.79,55.74,36.36,3.55,98.9,97.5,100.58,137.38,9.13,12.14,10.42,10.88,42.57,434.36,10.26
67,56,51016,NYNGAN,-31.438,147.278,172,434.53,25.87,4.84,41.2,61.69,56.78,39.11,4.48,125.82,89.33,107.77,143.83,11.95,13.95,14.13,13.55,53.58,466.75,8.6
68,74,51019,GILGOIN,-30.3,147.2,122,519.45,27.03,4.46,45.37,51.5,59.41,32.94,3.86,96.28,88.76,88.3,121.65,10.42,13.05,11.6,11.23,46.3,394.99,8.63
69,130,51025,WARREN,-31.457,147.882,186,386.18,25.77,4.56,43.72,54.99,57.2,39.81,4.1,115.49,103.53,111.02,146.53,11.06,13.77,12.29,12.02,49.14,476.57,9.75
70,25,51027,ILLABUNDA,-31.1,147.3,156,454.29,25.97,4.32,50.32,49.57,49.78,30.99,3.16,96.46,86.4,82.5,106.45,8.84,10.24,9.52,9.32,37.92,371.81,9.53
71,32,51064,WILLOW,-32.1,148.4,255,305.45,24.69,4.38,38.13,50.16,56.59,40.33,4.21,115.26,131.17,111.08,127.03,10.13,16.16,12.5,11.63,50.42,484.54,9.53
72,64,51066,EUMUNGERIE,-31.948,148.62,302,297.6,24.27,4.97,36.95,55.22,53.89,47.66,5.03,126.4,124.71,148.05,171.77,12.69,16.55,16.56,14.53,60.33,570.93,9.68
73,37,51077,COONIMBIA,-30.9,147.9,155,424.96,26.44,4.49,40.38,57.84,47.03,37.38,4.56,106.82,99.83,96.99,143.83,12.11,15.95,12.97,13.65,54.68,447.47,8.13
74,25,51083,DOOROOMBAH,-31.383,148.833,363,315.09,24.39,5.04,36.08,55.55,64.75,48.3,4.91,126.59,154.73,133.56,160.4,12.16,18.64,14.24,13.6,58.64,575.28,9.8
75,25,51090,MERRIMBA,-31.3,148,187,388.24,25.89,4.4,42.52,53.1,56.26,34.9,4.3,94.76,106.03,99.65,118.13,10.88,15.84,12.68,12.16,51.56,418.57,8.1
76,42,51121,COONAMBLE,-30.767,148.742,198,366.8,26.04,3.98,47.14,58.15,55.73,43.07,3.67,113.76,101.6,131.22,168.7,9.31,10.67,11.48,12.57,44.03,515.28,11.68
77,41,51122,CURBAN,-31.556,148.598,260,326.72,25.11,5.17,38.81,58.4,61.09,47.85,4.75,131.85,117.18,145.37,179.68,11.66,15.9,15.59,13.95,57.1,574.08,10.05
78,37,51133,WARRUMBUNGLE,-31.229,148.886,400,321.89,24.62,5.08,40.11,60.97,66.09,52.58,4.61,136.37,133.42,161.49,198.33,11.38,14.38,14.65,14.84,55.25,629.61,11.58
79,25,51139,GILGANDRA,-31.7,148.683,28.5,310.06,24.70,5.6,33.64,60.25,47.13,52.8,5.96,173.16,151.85,134.64,174.28,15.08,23.88,16.96,15.56,71.48,633.93,8.82
80,73,52003,CRYON,-29.958,148.469,140,447.62,27.12,4.67,40.45,65.35,68.55,41.03,4.49,116.54,89.88,107.65,177.49,11.37,13.52,13.66,15.37,53.92,491.56,9.15
81,36,52009,BUNNA,-29.8,149.1,161,385.59,27.32,4.61,45.11,61.53,64.01,40.93,3.82,106.99,106.81,114.47,162.29,9.36,12.11,11.72,12.58,45.77,490.56,10.55
82,62,52013,POKATAROO,-29.583,148.683,145,430.42,27.43,5.16,39.6,68.34,69.24,41.46,4.88,112.12,91.56,110.97,181.84,12.29,14.85,14.77,16.57,58.48,496.49,8.43
83,120,52020,MUNGINDI,-28.979,148.99,160,424.55,27.66,5,40.6,59.77,68.67,42.4,4.56,116.86,93.66,111.33,186.96,11.63,12.88,13.85,16.3,54.66,508.81,9.31
84,48,52025,THE,-29.7,148.5,152.4,467.65,27.52,3.9,51.27,62.12,57.92,38.63,3.02,103.01,100.3,106.94,155.04,7.83,8.83,9.06,10.6,36.32,465.29,12.82
85,91,52028,ROWENA,-29.75,148.943,155,401.66,27.14,4.47,45.41,65.18,68.53,42.89,3.98,118.58,102.12,112.46,181.42,9.92,12.44,11.81,13.58,47.75,514.58,10.99
86,63,52031,MUNGINDI,-29.117,149.017,152,416.09,27.41,3.79,60.86,60.62,59.08,39.94,2.93,104.27,87.58,108.08,181.05,7.02,8.22,8.89,11.14,35.27,480.98,13.96
87,31,52037,BRONTE,-29.7,149,156,397.52,27.50,5.36,45.32,58.27,66.35,38.55,4.24,111.09,100.51,95.43,156.11,11,12.97,12.77,14.03,50.77,463.14,9.13
88,32,52049,DERRA,-29.55,149.267,169,377,27.39,4.72,45.19,54.01,59.22,42.78,4.28,124.13,110.82,102.33,177.44,11.25,12.78,12.25,15.25,51.53,514.72,10.04
89,40,52067,ROWENA,-29.814,148.91,155,426.58,27.06,5.53,38.63,59.98,79.15,46.33,5,118.29,97.9,129.58,208.49,12.4,13.85,16.13,17.63,60.01,554.26,9.27
90,31,52074,PILLIGA,-30.347,149.023,165,380.16,26.79,5.45,41.68,57.13,63.12,47.49,5.02,122.54,114.28,146.7,185.14,12.61,14.52,16.35,16.68,60.16,568.66,9.4
91,46,53007,BARADINE,-30.983,148.867,274.3,341.52,25.59,4.89,38.24,60.07,72.23,47.28,4.53,126.86,130.49,133.91,176.02,11.24,15.67,13.54,13.89,54.34,567.28,10.35
92,26,53013,GARAH,-29.1,149.65,187,360.63,27.29,3.81,48.15,66.3,57.05,40.81,3.37,110.24,99.65,112.93,167.85,8.19,9.61,10.58,12,40.38,490.67,12.06
93,83,53026,NARRABRI,-30.255,149.679,209,341.39,26.54,5.02,40.81,68.14,65.54,50.21,4.74,126.16,115.75,147.79,213.3,11.22,14.01,15.35,16.25,56.83,603,10.71
94,86,53027,MOREE,-29.5,149.9,207.3,320.66,26.82,4.83,38.59,64.14,64.24,48.13,4.98,131.32,116.64,136.87,191.48,12.29,14.86,15.27,17.24,59.66,576.31,9.68
95,118,53034,WEE,-30.119,149.323,168,374.89,26.85,5.08,39.19,62.89,69.53,46.78,4.9,124.99,112.06,131.91,192.31,12,15.18,15,16.6,58.78,561.27,9.54
96,42,53036,ROCKY,-31.067,149.583,457,284.65,23.62,6.38,29.69,66.74,70.92,57.39,7.23,142.42,130.86,170.51,245.17,17.33,23.09,23.41,22.95,86.78,688.96,7.87
97,37,53037,BINIGUY,-29.6,150.1,253,298.63,26.71,4.22,47.6,63.83,65.67,46.47,3.62,109.08,124.98,139.04,188.04,8.11,11.73,11.3,12.51,43.65,561.14,13.08
98,33,53048,MOREE,-29.482,149.838,212.1,326.97,26.71,5.67,36.42,59.75,70.64,48.51,6.01,129.01,105.25,133.3,213.44,14.27,16.94,19.12,21.73,72.06,581,8.16
99,36,53057,PALLAMALLAWA,-29.5,150.1,227,302.6,26.96,4.56,44.56,58.15,66.08,46.06,3.96,129.27,124.63,118.61,181.97,10.17,12.72,11.28,13.44,47.61,554.48,11.86
100,25,53065,KILGOWLA,-29.783,149.767,221,323.36,26.72,4.68,43.84,66.47,52.7,48.88,4.3,144.27,124.16,127.1,188.62,11.64,13.24,12.44,14.24,51.56,584.15,11.56
101,42,53070,MOREE,-29.62,149.377,173,364.54,27.01,4.38,53.76,66.32,84.06,44.63,3.56,115.7,97.15,128.73,192.99,8.88,9.71,11.26,12.69,42.54,534.57,12.56
102,42,53073,KENEBRI,-30.763,149.001,250,347.31,25.77,5.29,37.02,62.8,67.69,50.63,5.61,122.94,118.53,153.66,210.22,13.33,16.62,18.07,19.17,67.19,605.35,9.06
103,42,53075,BARADINE,-30.883,148.809,236,353.15,25.73,4.67,43.5,57.81,62.48,45.18,4.29,115.83,108.99,138,177.29,10.69,12.98,13.52,14.26,51.45,540.11,10.49
104,42,53076,NORTH,-28.948,150.255,240,299.65,26.68,4.86,37.02,65.93,63.91,51.32,5.02,136.29,99.96,155.54,223.05,12.33,13.24,17.02,17.57,60.16,614.84,10.25
105,38,53077,BOOMI,-28.744,149.822,197,351.49,27.15,4.29,51.84,69.36,69.37,46.92,3.57,135.88,96.87,127.95,200.38,9.05,8.9,11.5,13.26,42.71,561.08,13.23
106,35,53082,COONABARABRAN,-30.797,149.553,320,309.39,25.16,5.26,42.71,76.17,85.27,56.74,4.47,148.49,132.96,163.93,235.26,11.4,12.23,14.37,15.66,53.66,680.64,12.72
107,42,53085,GARAH,-28.966,149.672,184,355.47,27.22,4.88,38.74,68.2,65.52,47.34,4.7,119.87,99.14,138.37,209.24,11.36,12.6,15.43,16.95,56.34,566.62,10.1
108,67,53091,MOREE,-29.333,149.6,188,354.51,26.92,4.69,48.3,63.08,66.41,42.68,3.65,116.22,105.1,110.25,180.86,9.02,10.9,10.58,13.43,43.93,512.43,11.73
109,46,53092,GOORIANAWAH,-31.1,149,347,323.38,24.88,4.76,40,58.46,63.48,49.95,4.72,142.12,155.7,125.67,174.11,12.61,17.54,12.98,13.5,56.63,597.6,10.78
110,36,53094,CUTTABRI,-30.348,149.133,174,373.39,26.62,5.22,44.58,65.18,71.33,48.34,4.38,128.42,112.96,134.2,199.24,10.97,12.5,13.97,14.92,52.36,574.82,11.26
111,32,53104,GARAH,-28.833,149.783,191,347.24,27.30,4.69,41.13,63.64,75.47,45.29,4.48,127.56,106.24,109.78,197.9,11.16,13.75,13.31,15.66,53.88,541.48,10.11
112,45,54006,BUNDARRA,-30.267,150.917,850,203.95,22.89,4.6,33.96,63.91,72.13,62.93,5.18,143.07,161.61,196.02,254.9,12.33,14.82,16.27,18.73,62.15,755.6,12.23
113,44,54019,BINGARA,-29.917,150.417,380,258.86,25.52,5.27,32.73,67.93,71.29,59.85,5.55,136.7,146.3,188.65,245.86,12.34,16.39,18.48,19.25,66.46,717.51,10.82
114,55,54028,COPETON,-29.957,150.916,622,211.26,23.92,6.18,30.64,69.14,74.86,69.04,6.86,153.17,144.06,218.03,312.97,15.96,19.29,22.56,24.53,82.34,828.23,10.18
115,105,54032,COOLATAI,-29.202,150.608,425,261.94,25.50,4.99,37.62,63.49,70.29,53.81,4.75,133.64,124.06,158.13,229.67,11.31,13.24,14.91,17.57,57.03,645.5,11.34
116,77,54033,YALLAROI,-29.1,150.5,353.6,273.57,25.82,4.95,36.81,62.51,61.1,52.42,5.23,129.57,127.53,151.43,220.34,12.69,15.68,15.91,18.45,62.73,628.87,10.16
117,58,54036,WALLANGRA,-29.244,150.892,440,233.98,25.33,6.21,29.07,71.02,72.78,63.11,6.79,149.25,125.59,191.14,287.97,16.1,18.79,21.84,24.62,81.35,753.95,9.3
118,49,54045,ASHFORD,-29.341,151.289,578,194.87,23.62,5.71,32.45,60.92,65.43,61.02,6.08,147.25,119.67,198.02,270.36,14.06,15.57,20.29,23.12,73.04,735.3,10.1
119,50,54046,ASHFORD,-29.399,151.411,750,183,22.73,6.14,30.64,58.73,65.06,63.1,6.66,148.54,129.6,209.05,273.18,15.66,17.26,22.02,25.1,80.04,760.37,9.49
120,29,54055,ASHFORD,-29.402,151.203,472,203.13,24.90,4.14,37.59,65.85,62.58,56.86,4.63,146.09,104.92,188.88,243.67,10.97,11.28,15.9,17.62,55.77,683.56,12.48
121,50,54073,NULLAMANNA,-29.645,151.236,653,196.07,23.30,5.64,31.08,61.8,77.58,64.31,6.55,150.48,125.11,207.93,290.64,15.52,17.2,21.4,24.56,78.68,774.16,9.83
122,50,54077,INVERELL,-29.687,151.071,590,208.15,23.48,5.72,36.56,63.8,67.84,59.99,5.43,147.84,114.21,195.59,266.54,12.84,13.26,18.34,20.92,65.36,724.18,11.13
123,50,54078,INVERELL,-29.675,151.153,645,201.62,23.29,5.34,31.72,63.12,76.64,63.01,6.06,154.85,120.23,204.82,279.48,14.42,15.28,20.44,22.74,72.88,759.38,10.46
124,37,54095,TARRIARO,-30.3,149.9,274,314.06,26.30,4.3,40.11,65.92,65.16,54.69,4.34,152.57,151.37,148.27,203.68,11.27,14,13.11,13.73,52.11,655.89,12.56
125,44,54102,BARRABA,-30.374,150.672,620,225.54,23.91,5.61,31.39,61.53,72.11,57.53,6.3,127.17,119.22,183.1,261.66,14.48,17.89,20.89,22.39,75.65,691.15,9.09
126,37,54104,PINDARI,-29.39,151.245,462,199.11,24.61,6.73,27.59,65.26,77.98,62.34,7.16,151.18,117.35,210.23,268.6,17.11,18.08,24.32,26.3,85.81,747.36,8.71
127,44,54105,BUNDARRA,-30.335,150.934,880,201.65,21.28,6.05,28.34,59.77,80.22,66.12,6.75,146.49,150.75,216.82,280.68,15.34,19.7,22.55,23.43,81.02,794.74,9.89
128,44,54116,BARRABA,-30.303,150.693,715,225.04,22.36,5.32,38.64,61.1,79.46,58.42,5.07,131.18,123.59,183.86,264.59,11.48,14,16.93,18.5,60.91,703.22,11.57
129,40,54122,WARIALDA,-29.345,150.577,375,268.12,25.64,4.9,39.22,65.72,94,56.42,4.68,142.14,115.53,170.54,249.38,11.32,11.73,15.48,17.58,56.11,677.59,12.16
130,42,54124,CROOBLE,-29.274,150.266,287,298.45,26.44,4.76,39.31,59.86,73.24,51.11,4.59,126.01,109.35,152.54,225.31,11.21,11.45,14.76,17.62,55.04,613.21,11.22
131,40,54128,COPETON,-29.887,150.895,660,215.54,23.18,6.38,28.9,67.02,76.76,68.1,7.37,153.38,142.8,214.46,305.74,17.5,20.35,24.42,26.1,88.37,816.38,9.25
132,37,54129,CROPPA,-29.207,150.37,320,284.98,26.18,4.35,45.62,67.72,80.66,54.94,4.22,146.9,114.51,157.82,248.73,10.7,10.65,13.65,15.97,50.97,667.96,13.79
133,35,54138,UPPER,-30.156,150.389,392,256.01,25.37,5.66,34.31,75.11,90.43,66.24,5.99,158.03,152.44,193.05,287.04,14.69,16.51,19.57,20.89,71.66,790.56,11.14
134,40,55005,BLACK,-31.65,150.2,574,197.33,22.20,4.8,34.88,61.93,68.23,52.8,4.93,126.17,148.43,156.4,204.87,11.43,15.85,15.43,16.52,59.23,635.87,10.66
135,34,55009,BROWN,-31.6,150.4,344,189.59,24.27,4.68,36.06,52.85,48.51,46.91,4.74,117.65,113.33,140.63,189.17,11.56,14.5,14.21,16.44,56.71,560.78,9.89
136,113,55018,MULLALEY,-31.171,149.646,375,272.07,24.13,4.82,42.95,65.56,74.06,52.6,4.51,136.45,131.16,144.33,219.41,10.99,13.7,14.09,15.38,54.16,631.35,11.78
137,61,55024,GUNNEDAH,-31.026,150.269,307,239.49,24.82,5.7,34.53,62.32,68.71,53.1,6,126.63,117.94,166.67,225.43,14,17.64,20.02,20.23,71.89,636.67,8.81
138,38,55026,WILLOW,-31.8,150.6,514,160.49,22.94,5.03,35.03,52.43,56.6,49.65,5.11,120.07,140.74,148.18,191.18,11.92,17.66,15.66,16.34,61.58,600.17,9.65
139,87,55039,SPRING,-31.395,150.249,314,216.45,24.40,5.41,33.54,58.31,70.06,50.24,5.53,123.93,118.68,153.77,206.72,13,17.07,17.76,18.46,66.29,603.1,9.04
140,72,55043,WILLOW,-31.712,150.413,405,178.99,23.77,4.89,40.28,66.35,67.58,57.28,4.88,132.78,138.35,177.78,237.72,11.39,14.65,15.68,16.82,58.54,686.63,11.83
141,106,55045,CURLEWIS,-31.179,150.031,353,247.97,24.35,5.59,35.11,58.58,65.09,49.31,5.43,124.29,117.67,151.77,198.09,13.26,16.26,17.5,18.24,65.26,591.82,9.1
142,56,55060,WILLOW,-31.65,150.667,396.2,166.81,24.16,5.14,34.29,55.02,58.1,52.23,5.56,122.3,133.78,157.1,215.29,12.7,18.23,17.38,18.43,66.74,628.47,9.47
143,93,55064,PINE,-31.6,150.381,350,190.66,24.13,5.26,37.29,56.78,62.81,51.52,5.21,124.72,122.76,154.02,217.65,12.35,15.29,16.88,18.08,62.6,619.15,9.94
144,73,55065,BREEZA,-31.166,150.544,302,210.79,24.85,5.53,34.45,60.68,67.41,53.53,5.8,127.61,125.33,163.55,226.21,13.31,18.08,18.97,19.2,69.56,642.7,9.26
145,35,55077,FERNLEIGH,-31.8,150.7,751,151.8,21.20,5.31,27.8,69.99,91.61,66.57,6.56,167.36,204.14,184.09,245.08,16.6,23.63,19.74,18.89,78.86,800.67,10.32
146,46,55082,ORABAH,-30.47,150.954,853,197.12,21.35,5.46,35.33,59.43,69.26,61.27,5.55,133.88,138.38,203.59,257.96,12.87,15.11,19.3,19.22,66.5,733.81,11.23
147,29,55100,MANILLA,-30.746,150.907,435,211.1,23.88,5.55,31.48,57.07,63.41,58.58,6.24,140.95,126.9,189.35,244.45,14.17,17.41,21.72,21.72,75.02,701.65,9.44
148,51,55109,BENDEMEER,-30.799,151.109,790,194.37,21.43,6.47,27.61,59.91,70.15,69.54,7.24,153.13,172.41,229.83,279.38,17.06,21.45,23.94,24.57,87.02,834.75,9.68
149,82,55118,SOMERTON,-30.918,150.7,375,211.21,24.31,4.88,40.74,58.33,61.03,48.82,4.82,115.58,113.71,150.04,206.39,10.96,14.27,15.87,16.74,57.84,585.72,10.22
150,49,55122,ATTUNGA,-30.841,150.91,471,202.99,23.81,6.12,29.18,58.6,58.6,63.05,6.95,146.93,146.54,207.54,253.31,15.96,21.1,23.2,23.12,83.38,754.32,9.1
151,50,55136,WOOLBROOK,-30.967,151.345,910,165.98,20.51,6.68,24.52,54.07,72.81,64.72,8.49,138.71,150.99,216.82,272.06,19.68,25.58,28.02,28.76,102.04,778.58,7.62
152,50,55140,SOMERTON,-31.01,150.713,378,203.56,24.49,5.36,35.9,63.68,61.48,55.04,5.79,127.82,125.31,171.93,234.67,13.08,16.96,20.06,19.38,69.48,659.73,9.54
153,50,55143,MOONBI,-31.019,151.066,462,178.38,22.96,6.1,30.12,54.38,62.29,58.53,7.17,125.73,136.93,195.03,246.25,16.22,21.18,24.52,24.24,86.16,703.94,8.16
154,31,55146,WOOLBROOK,-31.037,151.333,1050,160.42,20.66,6.36,28.68,56.14,70.65,68.69,7.1,160.7,167.52,216.04,280.14,16.03,22.42,23.35,23.03,84.83,824.4,10.16
155,50,55157,WINTON,-31.085,150.658,434,211.6,23.56,5.32,32.48,63.68,71.46,58.07,5.8,131.12,144.46,184.64,236.26,12.98,17.38,20.02,19.3,69.68,696.48,10.01
156,44,55158,WARRAL,-31.156,150.865,418,181.98,23.72,5.64,35.36,59.8,69.43,55.58,5.98,129.37,128.46,174.57,235.68,13.75,18.3,20.25,19.57,71.87,668.08,9.43
157,48,55160,NEMINGAH,-31.166,151.063,425,167.14,23.68,5.67,30.67,57.97,58.07,57.43,6.5,131.8,133.82,188.43,237.22,15.29,19.77,21.75,21.23,78.04,691.27,8.88
158,25,55167,DURI,-31.183,150.75,423,197.68,22.71,6.04,31.72,61.47,69.71,59.74,6.7,143.32,133.74,189.82,252.2,15.48,20.28,23.52,21.36,80.64,719.08,8.97
159,29,55174,DURI,-31.25,150.8,473,188.88,23.35,5.59,32.45,64.3,79.13,61.71,6.23,140.32,143.99,188.24,268.39,13.97,18.66,21.07,21.21,74.91,740.94,9.94
160,50,55176,LOOMBERAH,-31.257,151.084,540,158.82,22.49,6.38,27.74,60.52,66.22,63.09,7.43,138.3,156.85,204.84,257.58,16.82,22.88,25.02,24.5,89.22,757.57,8.49
161,37,55182,LOOMBERAH,-31.32,150.988,505,161.64,22.66,6.43,28.92,61.82,66.54,60.23,7.36,139.01,140.28,185.02,257.86,17.14,22.43,24.73,24,88.3,722.17,8.17
162,50,55183,DURI,-31.296,150.861,477,181.42,23.29,5.84,33.32,62.27,74.13,58.9,6.15,135.25,145.56,184.29,243.41,13.86,19.52,20.4,20.2,73.98,708.51,9.67
163,48,55189,WOOLOMIN,-31.34,151.176,530,146.21,21.45,6.6,28.56,58.83,68.23,66.69,7.38,139.37,175.47,218.5,267.3,16.4,23.63,25.4,23.17,88.6,800.64,9.03
164,43,55193,OGUNBIL,-31.373,151.35,650,131.44,19.86,6.14,27.79,59.15,86.6,80.64,7.46,169.09,238.39,262.96,297.82,17.84,23.56,24.47,23.79,89.66,968.26,10.8
165,42,55224,WOLLUN,-30.9,151.2,858,180.2,21.45,5.36,30.41,59.63,54.03,64.32,6.91,152.38,173.11,194.44,252.68,17.05,23.05,21.19,21.81,83.1,772.61,9.59
166,26,55227,TREMAYNE,-30.767,150.433,445,241.42,24.40,3.92,45.58,60.95,58.05,49.76,3.99,135.95,126.8,136.97,197.76,10.54,12.61,12.35,12.46,47.96,597.48,13.21
167,30,55237,BLACKVILLE,-31.668,150.325,380,188.04,23.69,6.07,30.67,61.13,70.44,57.33,6.69,140.98,130.27,173.85,243.05,16.2,19.97,22.13,22.03,80.33,688.15,8.6
168,43,55248,WILLOW,-31.725,150.584,370,165.28,23.93,4.65,42.44,61.83,68.65,54.8,4.7,124.33,135.09,176.91,219.9,10.72,14.81,15.79,15,56.32,656.23,11.76
169,40,55273,BOGGABRI,-30.82,149.837,298,287.96,25.40,5.47,39.45,66.38,72.29,51.22,5.4,123.96,114.97,153.67,221.08,12.65,14.57,18.7,18.9,64.82,613.68,9.61
170,100,55274,KELVIN,-30.778,150.436,409,240.38,24.51,5.2,34.99,52.72,55.11,47.86,5.46,109.08,115.22,149.12,200.29,12.5,17.33,17.57,18.06,65.46,573.71,8.86
171,39,55275,BREEZA,-31.287,150.539,299,200.7,24.67,5.8,40.64,62.18,82.17,54.97,5.22,129.96,124.87,167.44,234.19,11.92,15.51,17.72,17.33,62.48,656.46,10.55
172,48,55276,KEEPIT,-30.883,150.493,304,228.73,24.63,5.63,32.94,56.51,65.26,51.49,6.27,123.38,111.29,159.94,221.59,14.67,18.25,21.17,21.06,75.15,616.2,8.19
173,39,55279,TAMWORTH,-31.094,150.738,425,195.78,23.93,5.92,31,60.62,67.5,56.55,6.66,124.97,132.93,186.45,235.99,14.69,19.72,23.49,22.15,80.05,680.34,8.48
174,37,55293,MANILLA,-30.75,150.617,365.8,229.78,24.98,4.57,43.46,61.18,57.8,47.45,4.35,106.32,103.56,143.21,215.39,9.54,12.46,13.65,16.49,52.14,568.48,10.88
175,35,55296,BENDEMEER,-30.767,151.247,855,166.86,20.88,6.37,29.2,57.74,73.65,66.97,6.97,148.89,165.13,222.96,264.16,16.54,20.4,23.2,23.4,83.54,801.14,9.68
176,31,55302,NUNDLE,-31.356,151.136,520,148.07,21.08,6.55,29.16,61.01,61.74,63.62,7.39,129.04,169.22,207.89,260.74,17.13,23.68,24.42,23.61,88.84,766.89,8.61
177,55,55328,MANILLA,-30.855,150.748,510,212.65,23.33,5.91,29.42,59.85,67.66,59.41,6.32,141.87,132.21,188.27,249.29,14.56,18.49,20.91,21.82,75.78,711.64,9.45
178,26,55331,MANILLA,-30.73,150.578,430,233.96,24.79,5.19,38.85,48.23,56.45,52.69,5.4,127.41,118.36,169.45,215.09,12.77,15.19,18.11,18.77,64.84,630.31,9.82
179,56,56004,BEULAH,-30,151.7,1432.6,138.41,17.67,6.07,31.32,67.77,87.03,81.82,6.01,185.35,234.41,251.98,310.62,14.52,17.48,18.79,21.38,72.17,982.36,13.87
180,106,56007,TINGHA,-29.931,151.294,895,177.54,21.68,5.76,32.26,68.67,80.24,72.71,6.25,169.13,174.62,225.13,304.29,14.79,17.39,19.95,22.87,75,873.17,11.8
181,64,56010,WALCHA,-30.941,151.708,1060,123.94,18.69,8.05,28.03,57.28,74.43,60.19,7.7,136.62,124.74,186.33,274.05,19.81,21.55,23.67,27.33,92.36,721.74,7.91
182,48,56019,KELLYS,-30.6,151.6,999.7,133.82,19.70,6.63,24.73,58.06,64.58,63.33,7.87,147.18,167.62,191.18,255.26,21.67,24.88,22.56,25.35,94.46,761.24,8.09
183,57,56021,MOUNT,-29.917,151.217,870,185.15,21.83,6.37,26.75,75.21,84.02,81.53,7.47,185.8,184.01,258.03,350.49,17.75,21,24.3,26.61,89.66,978.33,10.94
184,105,56022,LEGUME,-28.462,152.351,385,114.11,24.20,9.1,26,69.85,100.33,71.15,8.69,215.52,134.77,178.71,324.67,29.95,20.16,21.65,32.51,104.27,853.67,8.27
185,28,56024,PINKETT,-29.9,152,1091,118.2,19.57,5.75,34.43,91.12,99.6,83.2,5.62,203.16,166.81,223.36,403.65,14.5,11.11,16.75,24.93,67.29,996.98,14.95
186,97,56028,URALLA,-30.734,151.51,1018,141.65,19.69,6.81,25.73,57.42,64.89,64.02,8.01,142.51,157.63,198.84,268.6,20.09,24.75,24.83,26.4,96.07,767.58,8.11
187,72,56031,TENTERDEN,-30.1,151.5,969.3,152.74,19.12,6.51,23.36,63.54,68.03,72.77,7.86,164.07,193.97,226.89,287.37,19.21,24.1,24.53,26.39,94.23,872.3,9.27
188,60,56050,TENTERFIELD,-29.02,151.746,680,155.93,21.85,5.43,32.55,65.01,72.41,66.93,5.92,152.07,137.23,220.29,291.09,13.05,15.45,19.3,23.23,71.03,800.68,11.44
189,58,56052,TENTERFIELD,-29.099,151.742,440,154.3,24.61,5.16,32.81,61.66,66.11,60.98,5.63,134.47,122.19,200.63,272.6,12.35,14.64,18.43,22.07,67.49,729.89,10.99
190,57,56055,MOLE,-29.021,151.615,380,168.24,23.65,5.33,34.33,62.01,53.9,56.53,5.91,130.56,104.63,184.44,257.07,12.49,15.63,20.44,22.28,70.84,676.7,9.58
191,43,56056,EVERSLEIGH,-30.5,151.5,962,144.8,20.42,7.09,20.81,56.41,65.23,66.23,9.02,159.49,168.04,209.66,257.83,24.21,28.56,26.56,28.93,108.26,795.02,7.34
192,28,56063,URALLA,-30.6,151.5,1075,143.38,19.94,7.14,19.14,62.1,67.64,69.98,8.97,173.1,185.96,214.9,264.72,24.46,29.86,25.75,27.71,107.78,838.68,7.8
193,92,56065,URALLA,-30.721,151.667,1012,126.63,19.47,7.12,24.73,58.15,68.63,62.78,8.37,138.8,141.99,198.14,274.26,22.87,24.47,25.01,28.03,100.38,753.19,7.57
194,30,56074,GLENCAIRN,-29.7,151.7,1059,149.46,19.93,5.13,28.6,51.14,59.91,61.96,5.91,139.07,152.6,184.02,266.38,14.9,14.97,17.47,23.53,70.87,742.07,10.54
195,50,56075,WALCHA,-31.034,151.441,965,154.69,19.58,6.72,27.66,53.05,69.05,64.65,7.63,134.56,153.85,218.32,268.96,17.68,23.44,25.08,25.34,91.54,775.69,8.52
196,67,56083,GLEN,-31.264,151.546,1190,128.05,17.67,6.54,27.31,59.72,89.82,79.82,7.19,177.41,228.51,254.38,297.84,17.99,22.08,22.91,23.31,86.29,958.14,11.15
197,50,56088,EMMAVILLE,-29.53,151.671,890,157.98,20.67,6.38,29.46,61.71,84.58,66.69,6.65,150.06,131.44,221.37,298.07,15.5,17.12,21.94,25.28,79.84,800.94,10.15
198,48,56096,GLEN,-29.591,151.627,1015,159.62,20.39,6.42,25.54,65.53,75.66,66.78,7.22,149.11,130.57,220.86,304.11,17.85,18.35,23.25,27.35,86.8,804.65,9.36
199,50,56098,DUNDEE,-29.582,151.948,1035,130.89,19.61,7.06,27.68,63.08,83.98,69.42,7.63,171.51,124.65,205.14,334.45,21.32,18.58,22.66,29.1,91.66,835.75,9.15
200,33,56101,WELLINGROVE,-29.645,151.62,945,158.51,20.38,5.94,27.97,61.54,73.81,68.8,6.99,161.61,143.09,217.57,304.8,17.15,17.82,22.39,26.33,83.69,827.07,9.93
201,49,56111,ELSMORE,-29.78,151.35,780,179.33,22.69,5.8,30.88,59.35,68.07,63.77,6.78,152.91,123.61,200.17,291.22,16.06,17.71,22.43,25.2,81.4,767.91,9.43
202,52,56128,SWAN,-29.826,151.521,970,162.3,21.30,6.61,27.29,59.33,76.19,71.32,7.53,161.09,152.57,227.24,312.92,17.54,20.46,24.6,27.83,90.43,853.82,9.47
203,28,56131,STONEHENGE,-29.793,151.765,1080,143.68,19.48,7.39,25.71,60.71,80.05,66.53,8.15,163.31,134.09,214.41,293.81,21.04,20.36,25.64,31,98.04,805.62,8.19
204,34,56134,TINGHA,-29.917,151.324,947,175.41,21.19,6.18,27.91,68.44,82.43,78.96,7.26,197.06,173.96,237.76,343.41,18.47,19.53,22.79,26.56,87.35,952.19,10.82
205,31,56174,LAURA,-30.233,151.133,688.8,183.87,23.02,4.45,35.13,57.19,62.03,55.07,4.57,118.28,128.68,187.71,226.62,10.23,12.48,14.84,17.35,54.9,661.29,12.13
206,38,56212,TENTERFIELD,-28.843,152.253,585,117.69,22.30,9.29,25.05,75.93,125.29,83.06,8.68,250.31,117.67,205.82,422.97,29.1,17.42,22,35.76,104.28,996.77,9.58
207,25,56213,NIANGALA,-31.35,151.533,1225.3,121.36,16.43,8.6,22.08,65.54,93.37,95.38,9.49,228.61,282.62,270.86,369.98,27.32,28.76,26.4,31.64,114.12,1152.07,10.23
208,40,56214,BUNDARRA,-30.312,150.996,731,196.34,22.54,6.25,29.88,61.24,83.93,68,6.78,151.46,150.46,220.19,294.01,15.5,19.23,22.25,24.38,81.36,816.12,10.06
209,27,56229,GUYRA,-30.213,151.679,1332,132.84,18.31,7.93,18.52,60.2,81.33,75.94,9.99,175.35,155.56,235.47,347.71,27.3,29.18,29.78,33.89,120.15,914.09,7.68
210,33,57009,GIRARD,-28.9,152.3,670.6,110.61,21.44,11.45,24.73,117.19,171.62,119.1,10.46,378.59,236.84,245.21,572.01,36.49,22.06,26.51,40.39,125.45,1432.65,11.3
211,100,57011,JEOGLA,-30.577,152.11,950,85.67,19.68,9.03,27.59,76.51,102.19,78.64,8.66,230.27,163.15,199.53,350.4,26.97,20.61,23.48,32.84,103.9,943.35,9.18
212,104,57022,WOLLOMOMBI,-30.49,152.1,980,88.63,19.45,7.84,26.55,65.73,82.51,66.84,8.12,175.15,131.68,186.82,307.71,24.25,19.86,23.23,30.08,97.42,801.36,8.35
213,52,57037,TIA,-31.112,151.801,1060,111.94,19.79,9.11,21.25,58.44,92.08,66.97,9.51,165.93,126.37,200.77,310.83,27.65,25.39,27.46,33.48,113.98,803.9,7.28
214,26,57044,LOWER,-30.747,152.28,125,67.98,24.24,10.19,27.77,103.51,173.96,88.15,8.86,282.74,130.2,224.32,429.06,26.81,16.77,26.27,36.69,106.54,1066.32,9.9
215,48,57045,TIA,-31.189,151.855,1130,103.55,18.80,10.56,19.02,63.6,95.69,73.23,11.02,200.82,137.83,207.55,333.49,32.96,29.02,31.9,38.52,132.4,879.69,6.69
216,47,57046,GUYRA,-30.285,151.855,1315,114.52,17.99,8.47,25,60.86,94.66,71.96,8.52,188.85,131.02,207.03,338.1,24.15,22.06,25.11,31.13,102.45,865,8.58
217,47,57049,GUYRA,-30.312,152.052,1195,95.35,17.98,7.83,27.11,59.23,94.61,68.59,7.8,176.54,115.21,197.67,333.82,21.77,19.15,23.43,29.34,93.69,823.24,9.03
218,29,57074,URBENVILLE,-28.615,152.412,335,112.34,23.56,8.41,25.03,77.44,103.7,79.16,8.68,259,142.79,180.8,371.28,29.28,19.86,21.24,34.1,104.48,953.87,9.1
219,50,57091,URALLA,-30.717,151.853,1067,108.86,20.21,9.44,22.98,62.31,113.39,77.97,9.78,220.24,132.7,225.35,357.29,28.8,24.66,28.28,35.66,117.4,935.58,8.12
220,38,57095,TABULAM,-28.755,152.451,555,102.85,23.57,10.74,25.26,90.26,160.4,102.95,10.75,347.49,141.02,243.8,502.96,36.95,21.87,27.24,42.82,128.88,1235.27,9.55
221,49,57104,YARROWITCH,-31.274,151.965,1110,95.07,18.70,9.73,18.51,76.41,112.63,86.22,11.09,259.21,171.98,234.96,367.62,35.06,27.84,30.9,39.26,133.06,1033.77,7.9
222,26,57109,WALCHA,-31.057,151.786,1025,116.13,20.45,8.15,23.23,55.34,79.91,64.8,8.38,181.82,115.93,183.54,292.8,25.42,20.54,24.65,29.61,100.22,774.09,7.77
223,63,57119,WALCHA,-30.889,151.855,1082,109.93,18.18,10.19,22.3,65.32,107.36,76.35,10.16,205.17,151.7,205.73,352.6,30.64,25.24,28.11,37.79,121.78,915.2,7.54
224,58,58009,BYRON,-28.639,153.636,95,0.27,24.38,11.17,20.4,123.83,198.33,144.13,12.27,572.11,364.74,288.67,503.6,44.5,30.16,31.38,41.12,147.16,1729.12,11.71
225,82,58013,CONDONG,-28.317,153.433,5,13.63,25.40,13.44,23.29,157.41,224.82,143.16,11.93,555.07,295.73,257.19,610.23,44.79,26.43,29.13,42.99,143.34,1718.22,11.98
226,119,58037,LISMORE,-28.807,153.263,11,27.21,25.83,9.93,23.68,119.46,154.29,112.07,10.52,433.79,231.72,217.99,461.15,38.79,24.49,25.71,37.29,126.28,1344.65,10.61
227,28,58050,ROSEBERRY,-28.483,152.917,152,60.88,23.94,11.86,23.54,105.03,152.79,98.56,11.17,304.47,203.43,201.72,478.64,40.25,25.64,27.14,41.25,134.28,1188.26,8.94
228,58,58065,BROADWATER,-29.017,153.433,6,3.03,25.05,10.19,23.74,132.25,163.84,125.48,10.36,496.83,317.61,227.46,462.81,38.72,25.53,25.05,34.9,124.2,1504.71,12.08
229,94,58067,TOMEWIN,-28.241,153.378,330,14.89,25.14,12.3,25.94,189.79,310.04,173.05,10.9,653.71,296.57,339.06,787.5,39.26,22.18,28,41.36,130.8,2076.84,15.93
230,38,58089,PIMLICO,-28.909,153.485,3,5.22,25.02,9.92,23.29,127.33,156.11,140.2,10.57,570.49,385.02,259.74,468.74,40.45,28.26,24.13,34.16,127,1683.99,13.16
231,42,58091,SPRING,-28.8,153.5,55,8.56,24.50,10.05,27.64,126.53,216.01,138.5,8.63,555.08,313.86,269.55,525.27,32.29,21.09,20.55,29.76,103.69,1663.76,16.12
232,47,58093,WOLLONGBAR,-28.819,153.416,150,12.72,24.54,12.68,24.49,123.65,230.89,138.56,10.75,562.48,308.23,269.94,522.07,41,25.79,26.36,35.87,129.02,1662.72,13.04
233,47,58127,CLUNES,-28.732,153.406,112,19.81,24.97,9.87,26.3,142.38,218.42,131.82,9.51,529,275.09,247.49,535.91,35.19,21.38,23.25,34.38,114.2,1587.49,14
234,42,58130,GRAFTON,-29.682,152.928,9,36.13,25.73,9.86,23.48,96.25,140.98,88.09,9.95,293.15,144.69,211.37,405.56,33.1,20.36,27.57,38.21,119.24,1054.77,8.89
235,40,58135,MEERSCHAUMVALE,-28.893,153.448,32,8.41,24.72,12,24.92,161.73,216.26,150.54,11,640.53,321.97,292.08,549.91,41.1,26,27.3,37.25,131.65,1804.49,13.68
236,45,58148,LILLIAN,-28.528,153.152,345,37.61,24.55,11.8,25.31,141.15,246.15,129.66,11.19,475.65,229.72,254.44,595.05,40.09,23.4,28.42,42.2,134.11,1554.86,11.52
237,36,58158,MURWILLUMBAH,-28.34,153.381,8,18.78,25.43,10.81,25.58,151.46,173.6,131.19,11.1,510.08,215.87,258.66,589.88,40.33,23.28,28,41.67,133.28,1574.49,11.74
238,31,58171,MEERSCHAUM,-28.926,153.418,14,9.41,25.06,11,25.52,137.64,186.72,138.12,11.22,595.3,303.37,244.27,514.65,42.77,26.39,27.13,38.29,134.58,1657.59,12.25
239,30,58190,UPPER,-29.583,152.75,40,55.57,26.66,8.7,29.7,91.77,116.82,85.17,8.48,278.87,150.88,212.2,382.1,28.13,18.37,23,32.57,102.07,1024.05,9.96
240,61,59029,RALEIGH,-30.45,153,3,4.07,24.77,8.02,35.8,151.38,197.55,131.99,7.34,525.38,279.12,267.08,512.62,26.54,15.44,18.54,27.62,88.14,1584.2,18.24
241,70,59030,SOUTH,-30.923,153.087,117,0.23,23.92,10.71,24.93,114.16,175.73,122.93,11.07,488.2,291.3,260.9,434.42,38.34,25.64,30.01,38.89,132.88,1474.82,10.98
242,25,59036,TURNERS,-31.017,152.717,13.7,30.02,24.58,8.16,35.04,131.62,167.15,102.42,7.94,321.48,251.4,208.27,448.55,26.28,17.08,21.24,30.64,95.24,1229.7,13.12
243,40,59038,BOWRAVILLE,-30.683,152.75,61,23.22,24.38,9.27,34.13,127.64,182.74,111.57,8.66,354.88,241.36,238.98,510.01,28.08,17.3,24.3,34.58,104.26,1345.23,12.81
244,26,59072,MYUNA,-30.8,152.6,214,37.97,24.54,9.39,31.19,106.29,173.39,95.43,7.9,297.34,187.85,241.23,410.64,26.23,16.89,21.42,30.08,94.62,1137.06,12.11
245,36,59100,ORAMA,-30.435,152.676,75,33.92,25.25,9.64,31.92,137.16,233.87,130.78,8.85,495.64,172.18,294.07,612.84,30.33,15.64,23.94,36.42,106.33,1574.73,14.85
246,35,59113,LEIGH,-30.31,152.764,783,31.89,19.54,12.74,19.51,161.83,256.6,162.85,12.9,655.63,273.18,347.99,676.02,44.43,26.14,35.14,49.06,154.77,1952.82,12.59
247,69,60010,CUNDLETOWN,-31.9,152.517,9.1,10.29,23.54,7.97,29.85,109.59,154.6,97.46,7.54,364.96,243,213.94,343.39,25.83,18.71,20.99,24.85,90.38,1165.29,13.66
248,39,60016,GREENWOOD,-31.8,151.5,914.4,91.84,17.66,8.74,18.92,71.76,103.05,85.54,9.89,235.27,233.42,223.33,330.24,29.87,29.49,27.56,31.49,118.41,1022.26,8.7
249,30,60064,YARRAS,-31.473,152.228,564,61.87,21.22,10.9,24.77,99.34,183.89,107.68,10.44,360.39,173.03,255.14,504.69,34.2,20.77,29.8,40.63,125.4,1293.25,10.29
250,25,60070,HERONS,-31.6,152.7,29,12.76,22.64,9.88,21.08,157.48,185.98,123.78,10.27,480.82,291.88,274.63,445.3,36,25,27.52,35.08,123.6,1492.63,12.05
251,31,60071,ROLLANDS,-31.2,152.6,393,34.72,22.89,10.1,23.77,129.95,128.48,97,9.64,335.54,234.47,236.18,354.38,32.1,23.52,26.48,33.55,115.65,1160.57,10.09
252,40,60090,BIRDWOOD,-31.342,152.341,135,54.55,23.94,10.13,27.52,101.44,183.99,101.36,9.29,364.68,144.77,257.18,448.46,30.58,17.95,26.25,36.65,111.43,1215.09,10.93
253,37,60104,NOWENDOC,-31.414,151.598,1130,111.99,18.42,11.03,17.76,72.4,133.52,93.4,11.91,270.17,192.91,267.91,387.79,36.32,31.78,33.68,41.11,142.89,1118.78,7.85
254,27,60122,KILLAWARRA,-31.892,152.274,90,28.97,24.26,8.78,21.56,83.88,122.34,83.82,9.57,300.43,142.21,225.88,335.01,32.15,22.74,26.52,33.26,114.67,1003.53,8.75
255,28,60144,SMITHS,-32.38,152.506,40,2.11,22.61,8.54,18.57,108.21,144.27,125.28,10.08,485.9,356.3,311.9,346.72,34.29,29.46,28.21,28.86,120.82,1500.82,12.45
256,122,61002,BLACKVILLE,-31.847,150.341,610,172.22,21.39,5.57,33.16,80.98,97.18,74.7,5.59,199.25,201.37,202.84,293.01,14.85,18.08,16.36,17.76,67.05,896.47,13.61
257,36,61003,AVOCA,-33.467,151.433,15.2,0.58,21.96,8.67,21.64,113.93,130.61,107.75,9.71,387.58,334.45,244.44,322.65,30.81,28.36,27.81,29.56,116.54,1289.12,11.16
258,30,61004,MUSWELLBROOK,-32.25,150.867,205.7,105.73,24.47,7.03,29.43,58.93,55.03,48.9,6.93,140.93,134.21,130.73,182.91,19.83,22.97,19.63,20.87,83.3,588.78,7.1
259,65,61013,MERRIWA,-31.983,150.333,370,162.12,23.68,7,26.12,64.49,68.63,53.15,6.8,140.11,126.12,146.21,226.62,18.14,23.06,19.63,20.89,81.72,639.06,7.93
260,75,61018,MUSWELLBROOK,-32.4,150.833,168,96.73,24.57,5.2,35.65,55.08,65.08,47.31,4.87,127.64,109.93,134.13,195.65,12.56,14.11,15,16.72,58.39,567.35,9.78
261,36,61019,FASSIFERN,-33,151.55,37,3.55,22.75,7.75,25.36,104.34,153.31,95.76,8.24,349.48,271.25,210.94,314.58,27.47,23.31,23.03,24.94,98.75,1146.25,11.67
262,35,61030,HOWES,-32.867,150.833,213.4,67.93,23.02,8.86,27.69,69.49,88.09,67.51,8.09,175.25,153.35,175.76,304.67,22.89,21.23,23.51,29.31,96.94,809.03,8.31
263,113,61031,RAYMOND,-32.776,151.735,10,7.33,23.27,8.13,23.34,93.1,133.49,87.87,8.82,320.06,242.5,203.43,288.68,28.78,25.45,24.42,27.14,105.79,1054.67,10.05
264,31,61044,MITCHELLS,-32.567,151.283,46,53.86,24.18,7.55,28.07,70.19,96.71,65.82,7.45,189.5,166.22,152.67,281.02,21.45,21.19,21.42,25.42,89.48,789.41,9.06
265,55,61045,MONKERAI,-32.283,151.833,144,42.23,22.37,11.82,18.69,92.65,163.72,106.86,11.93,343.61,244.19,251.99,444.65,38.33,31.45,32.73,40.85,143.36,1284.44,8.98
266,75,61052,MUSCLE,-32.267,151.067,305,92.84,22.44,7.2,23.81,68.01,84.61,67.03,8.07,184.18,180.8,179.68,260.34,23.52,25.39,22.99,25.01,96.91,805,8.32
267,48,61059,PINE,-32.5,151.8,61,21.06,23.25,7.5,26.21,87.42,126.64,77.18,7.36,261.95,203.52,196.59,264.77,24.63,21.21,20.67,21.88,88.39,926.83,10.64
268,83,61065,ABERDEEN,-32.14,150.729,543,123.48,22.22,6.2,30.58,63.97,67.7,61.62,6.56,167.88,145.11,177.94,250.45,18.1,20.01,19.9,20.8,78.81,741.38,9.45
269,119,61072,TAHLEE,-32.668,152.014,3,0.28,22.08,8.82,22.89,97.07,141.67,101.63,9.1,368.78,315.3,230.19,305.13,30.29,27.43,25.13,26.32,109.17,1219.4,11.21
270,61,61080,BELLTREES,-31.983,151.15,274.3,104.6,23.00,5.1,31.66,55.24,62.32,55.44,5.61,142.25,165.07,160.96,197.15,14.39,19.07,17.39,16.44,67.29,665.43,10
271,59,61081,WOLLONG,-32.9,151.5,274.3,12.64,22.89,8.52,19.8,99.32,116.26,77.05,9.62,258.57,214.11,186.22,267.9,30.27,28.22,26.95,30.1,115.54,926.8,7.99
272,109,61082,WYEE,-33.179,151.441,40,7.97,22.36,8.86,23.96,108.35,155.1,99.39,9.1,372.54,253.48,226.16,340.55,30.26,24.4,25.39,29.14,109.19,1192.73,11.55
273,123,61086,JERRYS,-32.497,150.909,90,86.06,24.53,6.07,28.42,59.97,62.78,53.51,6.98,142.51,127.24,155.18,216.75,19.58,20.79,21.23,22.15,83.75,641.68,7.8
274,39,61088,WAVERLEY,-31.867,151.067,396.2,119.41,23.60,4.85,29.46,50.21,64.99,52.38,5.62,132.16,148.97,147.57,195.95,14.15,19.8,17.23,16.18,67.36,624.65,9.37
275,59,61089,SCONE,-32.063,150.927,216,115.65,24.05,6.34,25.66,57.87,59.91,54.02,7.41,139.21,120.31,159.07,229.01,19.61,22.9,22.92,23.41,88.84,647.6,7.28
276,55,61093,OURIMBAH,-33.365,151.326,195,7.09,22.55,8.71,22.44,127.27,196.56,115.81,9.83,402.9,271.19,272.01,442.94,31.93,24.71,27.73,33.69,118.06,1389.04,11.94
277,45,61094,GLENBAWN,-32.106,150.992,229,108.09,23.44,6,26.4,59.16,66.62,54.85,7.36,141.7,128.86,170.24,215.8,19.44,23.49,23.13,22.13,88.19,656.6,7.43
278,56,61104,ELLERSTON,-31.8,151.3,563.9,111.86,21.94,5.7,26.89,52.19,58.62,55.33,6.59,136.16,145.95,162.25,219.29,17.04,21.89,20.36,19.8,79.09,663.65,8.55
279,29,61114,RINGWOOD,-32.167,150.167,387,162.09,23.15,4.48,32.83,50.53,62.85,45.04,5.06,123.96,131.98,121.99,155.98,12.41,17.66,16.38,14.03,60.48,533.91,8.9
280,42,61118,WARKWORTH,-32.3,151.017,344,92.51,23.96,5.91,29.43,61.05,65.66,51.08,6.16,148.46,125.35,143.45,196.65,18.5,18.76,18.43,18.17,73.86,613.91,8.31
281,25,61129,HALTON,-32.317,151.517,76,53.99,22.51,9,25.76,99.16,180.04,95.03,8.44,326.99,173.16,232.86,415.72,25.76,21.32,25.88,28.8,101.76,1148.73,11.61
282,49,61152,CONGEWAI,-33,151.291,165,22.73,22.51,7.29,27.55,88.78,124.47,79.99,7.55,272.27,190.95,196.96,303.8,24,19.67,21.98,25.14,90.79,963.98,10.65
283,27,61171,JERRYS,-32.517,150.967,90,78.73,24.27,5.33,31.41,56.1,74.92,52.87,5.79,148.4,101.11,157.79,231.98,16.15,14.48,18.74,20.48,69.85,639.28,9.19
284,36,61188,BROKE,-32.709,151.062,95,59.08,24.05,5.47,31.78,70.51,77.64,56.98,5.99,168.71,105.37,161.71,249.07,18.08,15.03,18.78,20.08,71.97,684.86,9.63
285,48,61191,BULGA,-32.613,150.976,80,72.38,24.60,6.71,29.27,60.78,74.86,54.76,6.58,151.76,110.23,153.52,242.58,18.29,16.65,21.13,22.83,78.9,658.09,8.55
286,49,61205,YALLAMBIE,-33.03,151.14,135,35.37,22.68,6.9,30.82,74.16,101.82,70.26,7.08,230.19,160.09,182.62,272.47,22.43,17.63,21.14,23.94,85.14,845.37,9.94
287,45,61215,RYLSTONE,-32.872,150.299,747,109.9,19.36,7.04,24.8,61.08,79.62,67.35,8.08,193.51,169.28,198.9,246.94,24.62,22.58,24.07,25.76,97.03,808.63,8.32
288,29,61223,MARYVILLE,-32.913,151.75,8,1.1,22.77,9.48,19.38,91.78,128.96,92.72,10.59,338.66,234.28,220.4,313.06,35.31,29.83,30.79,30.72,126.65,1106.4,8.74
289,31,61227,DUNGOG,-32.4,151.75,62,32.94,23.24,9.16,20.35,91.12,125.99,88.63,9.66,285.87,228.86,228.16,326.67,31.87,28.74,26.35,29.19,116.15,1069.56,9.25
290,42,61242,CESSNOCK,-32.809,151.349,62,30.37,24.23,7.88,24.95,70.42,92.67,63.48,8.24,199.46,127.73,172.59,260.01,25.59,21.17,24.83,27.21,98.8,759.79,7.81
291,41,61250,PATERSON,-32.63,151.592,30,27.78,24.19,8.17,22.58,79.4,107.09,76.91,9.3,270.01,149.66,196.86,305.95,30.07,24.51,26.81,30.1,111.49,922.48,8.31
292,35,61251,PENSHURST,-32.4,151.4,233,58.9,23.43,8.74,20.74,83.22,105.86,85.52,9.21,278.75,212.49,213.12,326.31,29.43,27.43,26.11,27.57,110.54,1030.67,9.28
293,28,61261,MERRIWA,-31.998,150.242,490,169.41,22.01,6.5,30.21,63.4,68.2,53.94,7.06,137.54,103.69,154.84,258.69,18.14,19.79,22.39,24.5,84.82,654.76,7.67
294,36,61285,TURANVILLE,-32.133,150.867,152.4,115.79,24.94,4.58,32.56,61.35,57.41,52.18,5.24,145.86,142,142.54,191.11,13.75,17.67,16.25,15.03,62.7,621.51,10.41
295,39,61288,LOSTOCK,-32.332,151.46,200,56.85,21.57,9.36,20.82,79.7,108.78,79.52,10.61,265.75,135.29,202.43,355.04,32.72,29.28,30.39,35.08,127.47,958.51,7.5
296,38,61292,ECCLESTON,-32.254,151.475,188,61.67,22.92,7.34,23.68,88.62,125.2,87.95,8.22,295.35,147.83,230.17,381.58,25.34,20.58,25.05,27.5,98.47,1054.93,10.72
297,38,61294,AVOCA,-33.467,151.413,8,2.33,21.45,8.66,21.32,113.77,149.4,111.1,10.05,410.06,291.11,250.99,383.3,33.58,27.6,28.24,31.32,120.74,1335.46,11.06
298,35,61303,SALAMANDER,-32.721,152.078,9,0.05,23.15,9.11,18.86,98.81,126.7,107.83,10.7,425.1,324.47,261.59,281.43,35.71,31.63,30.23,30.77,128.34,1292.59,9.98
299,36,61311,GRAHAMSTOWN,-32.769,151.793,11,6.3,23.44,8.64,22.94,85.72,99.66,88.52,10.01,344.56,229.37,212.93,273.62,33.39,28.36,28.14,29.92,119.81,1060.48,8.87
300,47,61329,POKOLBIN,-32.832,151.309,125,33.65,23.31,7.89,25.45,70.5,93.04,64.73,8.41,210.73,130.18,172.63,264.01,26.72,21.43,24.7,28.19,101.04,777.55,7.71
301,38,61346,HUNTER,-31.863,151.44,1235,99.26,16.47,9.76,17.4,74.54,110.22,97.18,11.44,260.11,267.27,288.32,349.75,33.47,35.87,33.03,35.05,137.42,1165.45,8.48
302,27,61351,PEATS,-33.31,151.244,280,15.86,21.23,9.44,19.41,116.63,161.96,104.92,11.18,368.81,248.33,263.4,376.22,35.93,28.22,30.93,38.96,134.04,1256.76,9.34
303,28,61364,DUNGOG,-32.366,151.683,155,39.59,21.94,8.75,20.11,80.45,102.69,82.24,9.81,279.78,160.87,223.56,323.02,31.61,25.64,27.39,33.14,117.78,987.23,8.38
304,45,62006,CHARBON,-32.9,149.967,762,133.56,20.01,7.64,24.96,57.85,76.81,61.63,8.31,153.24,160.5,190.98,236.4,23.09,27.62,24.62,24.56,99.89,741.12,7.47
305,127,62013,GULGONG,-32.363,149.533,475,201.27,23.04,5.2,32.09,61.21,57.05,54.51,6.03,144.75,147.44,163.15,198.41,15.2,21.02,19.04,17.06,72.32,653.75,9.09
306,28,62016,KANDOS,-32.867,149.967,762,135.49,20.98,6.64,26.61,53.51,71.08,58.89,7.35,150.4,166.97,179.56,207.84,19.14,25.25,22.07,21.46,87.92,704.77,7.94
307,36,62024,BURRENDONG,-32.6,149.15,462,216.57,22.66,5.47,33.53,58.03,51.35,51.72,6.11,138.27,162.44,153.86,165.5,14.61,24.39,18.53,15.78,73.31,620.07,8.41
308,80,62029,ILFORD,-32.981,149.81,780,142.35,19.13,6.34,27.24,52.91,57.47,60.68,7.4,153.35,171.92,192.5,209.95,18.25,26.05,23.36,21.09,88.75,727.72,8.19
309,48,62030,WALLAROI,-32.8,149.033,487.7,217.07,22.17,5.94,31.54,53.91,57.2,55.19,6.65,156.27,152.05,166.94,186.63,16.83,24.9,20.04,17.94,79.71,661.89,8.26
310,83,62034,STUART,-32.8,149.083,548.6,212.73,22.40,4.87,32.9,58.21,61.32,56.84,5.4,159.47,180.26,166.37,175.95,14.04,20.54,15.95,14.32,64.85,682.05,10.86
311,54,62035,LEADVILLE,-32.079,149.605,438,217.99,23.02,5.48,35.48,63.43,64.06,55.13,5.65,143,131,163.02,223.51,13.74,18.17,18.39,17.5,67.8,660.53,9.88
312,33,62066,CANADIAN,-32.45,149.517,504,196.52,22.54,5.3,28.7,56.9,64.34,50.93,6.17,130.09,152.69,158.85,171.28,15.58,22.85,18.91,16.88,74.22,612.91,8.38
313,38,62073,MOLONG,-32.967,148.923,563,221.83,22.55,4.66,35.74,53.51,61.45,51.98,5.14,136.96,149.09,160.09,177.16,13.53,17.71,16.55,13.74,61.53,623.3,10.12
314,44,62082,LLANGOLLEN,-31.967,150.017,488,187.26,22.14,5.86,28.8,58.59,59.7,50.08,6.41,136.58,138.67,138.12,188.54,16.91,23.14,19.05,17.91,77.01,601.91,7.8
315,25,62103,STUART,-32.815,149.041,560,215.8,22.63,6.12,28.4,56.06,63.25,55.15,7.45,143.53,169.18,176.38,171.19,17.32,27.08,24.96,20.24,89.6,660.28,7.32
316,87,63019,CARCOAR,-33.617,149.133,720.2,183.9,19.36,6.21,26.1,54.47,52.85,65.73,7.89,161.69,244.05,206.89,175.67,19.72,32.79,24.08,17.98,94.57,788.3,8.28
317,81,63021,COWRA,-33.9,148.7,331,205.18,22.63,5.53,29.68,54.02,41.77,51.09,6.89,142.14,158.88,151.92,158.31,16.88,28.69,21.38,15.64,82.59,611.25,7.38
318,65,63023,COWRA,-33.809,148.707,381,210.18,22.56,6.54,27.97,53.28,48.57,52.46,7.75,137.42,149.44,168.44,173.49,19.31,29.89,25.23,18.45,92.88,628.79,6.69
319,108,63032,GOLSPIE,-34.279,149.665,855,107.89,18.60,6.46,25.38,53.14,56.9,60.56,7.71,161.62,191.4,191.3,182.46,20.11,29.72,24.2,18.48,92.51,726.78,7.84
320,54,63042,KURRAJONG,-33.556,150.668,152,47.15,22.71,7.83,32.28,100.36,146.29,84.33,7.2,254.56,161.31,219.5,378.75,21.65,15.87,21.26,27.72,86.5,1014.12,12.19
321,34,63068,PEELWOOD,-34.117,149.433,685.8,135.81,20.32,7.03,26.03,50.54,57.71,65.41,8.4,179.62,209.49,213.95,180.04,22.03,32.06,27,19.79,100.88,783.1,7.69
322,116,63076,SOFALA,-33.081,149.69,579,148.62,20.71,5.88,29.21,51.41,54.48,53.36,6.72,136.32,147.84,168.69,187,16.1,24.27,21.92,18.32,80.61,639.85,8.07
323,89,63090,WELLWOOD,-33.317,149.15,849.8,190.03,19.08,7.16,25.91,61.56,68.18,73.63,8.06,190.98,249.9,222.35,222.02,20.01,31.88,24.88,20.01,96.78,885.25,9.31
324,118,63094,BIGGA,-33.996,149.124,683,166.7,19.78,6.07,31.95,52,64.04,66,6.57,171.18,233.73,206.11,180.82,16.4,26.92,20.59,14.95,78.86,791.84,10.01
325,42,63096,SHOOTERS,-33.895,149.861,1253,111,14.71,8.6,23.21,63.29,71.9,75.01,9.5,196.19,229.49,236.2,241.4,25.48,35,30.26,23.5,114.24,903.28,7.83
326,43,63113,ORANGE,-33.55,148.91,600,205.4,21.76,6,31.35,53.16,53,61.94,6.72,143.89,197.6,206.49,197.33,16.74,26,21.49,16.53,80.76,745.31,9.12
327,49,63116,BIGGA,-34.086,149.139,650,159.88,19.98,6.86,27.47,52.45,54.42,67.25,8.15,160.35,230.13,227.46,188.9,19.78,32.41,26.33,19.22,97.74,806.84,8.22
328,114,63118,BILPIN,-33.516,150.489,610,64.34,19.76,9.07,23.1,108.01,187.12,108.83,9.25,349.37,235.75,263.1,457.48,27.82,21.83,26.89,34.45,110.99,1305.7,12.07
329,48,63119,CROOKED,-34.235,149.265,720,141.35,20.10,6.31,26.42,53.48,58.02,66.14,8.05,156.57,223.32,226.18,187.63,18.96,31.77,26.71,19.23,96.67,793.7,8.17
330,39,63125,TARALGA,-34.44,149.73,952,92.91,17.11,7.41,23.54,63.68,72.26,67.14,8.77,192.52,193.31,220.06,203.04,24.28,30.46,27.61,23.13,105.48,808.93,7.68
331,46,63128,NEVILLE,-33.71,149.214,908,172.03,18.72,7.72,26.02,56.72,72.46,76.98,8.8,173.52,277.59,254.74,216.38,21.52,35.78,28.33,19.89,105.52,922.23,8.68
332,49,63132,LIDSDALE,-33.381,150.082,890,104.77,17.84,7.65,22.04,59.4,69.31,62.53,9.22,156.46,163.48,196.22,234.4,24.14,30.06,29.37,27.2,110.77,750.56,6.76
333,49,63146,CHEETHAM,-33.554,150.053,1060,102.92,17.13,8.33,20.18,65.11,90.75,71.09,9.71,190.31,183.86,209.5,270.27,27.33,30.67,29.9,28.84,116.74,853.94,7.28
334,29,63151,LITTLE,-33.627,150.19,774,87.87,19.54,8.21,22.97,79.23,109.51,66.93,8.6,214.5,157.25,179.72,254.68,26.52,25.03,26.52,25.24,103.31,806.15,7.75
335,33,63175,BRADWARDINE,-33.4,149.6,667,148.16,20.66,7.64,23.58,47.69,42.08,48.35,8.86,130.3,143.83,144.87,160.44,21.7,36.79,26.76,21.06,106.31,579.44,5.45
336,28,63187,BATHURST,-33.4,149.6,667,148.16,20.59,6.57,24.14,53.47,54.79,48.94,7.66,122.02,163.11,143.98,160.79,18.18,30.14,23.75,19.89,91.96,589.9,6.36
337,48,63188,BLACK,-33.85,149.75,1202,122.17,15.55,6.58,26.25,56.12,56.97,68.41,7.8,176.98,245.3,203.49,195.12,19.27,31.31,23.92,19.08,93.58,820.89,8.76
338,27,63191,CAPERTEE,-33.15,149.983,731.5,120.25,19.89,7.15,22.3,59.85,60.12,57.25,8.3,148.56,180.73,157.26,198.3,22.22,30.78,24.33,22.11,99.44,684.85,6.89
339,40,63231,ORANGE,-33.382,149.123,948,189.61,18.01,7.9,23.5,58.97,70.94,74.27,9.74,167.02,245.57,238.11,238.36,23.25,39.1,31.35,23.08,116.78,889.06,7.56
340,40,63234,WALLI,-33.671,148.857,580,208.41,22.04,5.95,30.75,50.62,67.41,59.71,6.72,143.44,185.54,194.15,192.32,16.15,26.08,21.77,16.63,80.63,715.45,8.9
341,70,63247,GLENARA,-33.6,150.65,138,48.1,23.11,8.69,26.16,87.16,119.03,68.99,8.94,216.75,156.61,177.11,276.32,27.67,22.83,25.2,31.66,107.36,826.79,7.64
342,43,63254,ORANGE,-33.321,149.083,922,195.59,18.94,7.67,27.28,62.11,81.11,77.23,8.93,179.68,260.18,244.14,243.2,21.09,35.49,28.44,22.23,107.25,927.2,8.71
343,50,63258,ATHOL,-33.5,149.3,893,169.62,18.60,6.08,30.96,50.32,49.87,46.98,6.58,130.36,151.18,141.5,139.77,16.5,27.42,19.66,15.24,78.82,562.81,7.15
344,76,63267,WYANGALA,-33.973,148.945,365,181.71,21.98,6.88,30.28,50.32,53.28,57.7,7.64,150.9,175.08,186.6,179.99,18.65,30.43,24.62,17.95,91.65,692.57,7.64
345,58,63271,TUENA,-34.042,149.361,510,146.21,20.04,6.81,28.84,53.89,63.95,64.04,7.98,159.73,201.77,211.2,194.58,19.66,31.43,26.02,18.57,95.68,767.28,7.98
346,129,64008,COONABARABRAN,-31.271,149.271,505,291.57,22.96,6,29.88,71.97,79.6,62.29,6.62,168.78,164.99,173.81,239.31,16.65,22.08,20.43,20.25,79.41,746.89,9.34
347,97,64009,DUNEDOO,-32.016,149.396,388,236.73,23.63,5.91,32.41,58.03,62.17,51.86,6.26,141.34,133.69,149.95,197.05,15.46,21.76,19.75,18.16,75.13,622.03,8.23
348,72,64010,ELONG,-32.114,149.036,335,255.09,23.96,5.04,35.54,56.38,61.73,50.99,5.42,135.84,136.69,155,183.32,13.25,18.89,17.47,15.39,65,610.85,9.74
349,71,64020,PURLEWAUGH,-31.343,149.508,500,270.03,23.22,6,32.03,62.21,73.08,53.31,6.08,137.62,117.57,153.25,230.26,14.65,18.76,19.7,19.75,72.86,638.7,8.78
350,39,64041,COONABARABRAN,-31.314,149.205,607,292.95,22.76,6.44,32.59,85,95.26,69.86,6.47,176.7,168.47,200.26,295.09,15.64,19.82,20.41,21.87,77.74,840.52,10.71
351,119,65000,ARTHURVILLE,-32.498,148.749,305,255.24,24.11,5.47,32.5,54.43,55.57,48.16,6,139.89,137.54,145,155.12,15.12,22.26,18.53,16.03,71.94,577.55,8.01
352,29,65002,BALD,-33.117,148.6,588,245.89,21.06,5.1,32.38,52.75,49.44,49.74,5.79,149.3,137.22,147.93,165.61,14.48,22.17,18.14,14.83,69.62,600.06,8.62
353,122,65016,FORBES,-33.389,148.008,240,290.01,24.09,5.76,33.22,50.69,46.47,43.92,6.47,126.96,128.94,131.7,139.46,16.63,25.78,19.98,15.22,77.61,527.06,6.84
354,113,65030,DUBBO,-32.519,148.519,330,273.7,23.81,5.5,35.12,58.77,64.29,53.05,5.58,149.99,162.4,150.22,173.45,14.18,21.45,16.92,14.39,66.94,636.06,9.57
355,53,65031,WANDARY,-33.4,148.1,244,282.36,24.08,5.07,34.06,46.47,42.14,39.52,5.31,114.44,128.61,108.74,123.61,13.64,22.17,15.83,12.19,63.83,475.4,7.53
356,59,65035,WELLINGTON,-32.506,148.971,390,236.34,23.55,5.91,30.71,50.93,57.91,51.63,6.84,142.21,136.18,165.69,174.68,17.51,24.12,22.02,18.36,82.01,618.76,7.48
357,30,65069,DUBBO,-32.3,148.6,277,277.93,24.64,6.93,27.67,70.68,66.91,57.41,7.2,178.29,168.88,150.44,191.44,17.8,27.93,20.5,20.17,86.4,689.05,8.08
358,42,65091,COWRA,-33.845,148.653,300,212.09,23.14,5.91,30.69,47.67,44.18,49.31,7.41,128.78,142.67,158.63,160.82,18.14,29.12,23.88,17.59,88.73,590.9,6.56
359,40,66005,BONDI,-33.883,151.267,15,1.25,21.56,9.35,21.85,108.93,167.8,103.5,9.94,358.73,329.93,239.69,317.79,31.75,28.55,28.4,30.8,119.5,1246.14,10.33
360,33,66019,EASTWOOD,-33.783,151.083,90,7.74,22.26,8.03,27.39,96.77,156.89,86.46,7.26,306.35,244.55,197.12,284.9,23.49,19.61,20.45,23.3,86.85,1032.92,11.87
361,27,66026,HOMEBUSH,-33.9,151.1,10,5.6,22.30,11.7,19.41,73.23,141.89,71.71,10.9,271.97,213.04,167.38,207.17,37.67,32.3,30.74,30.04,130.75,859.56,6.55
362,79,66037,SYDNEY,-33.941,151.173,6,0.27,22.20,8.95,21.02,97.41,126.81,90.47,10.25,320.45,269.05,212.15,285.06,33.06,28.39,29.83,31.77,123.05,1086.71,8.77
363,64,66060,SUTHERLAND,-34.033,151.067,121,2.03,21.60,8.13,23.38,107.44,138.72,88.62,8.47,308.39,266.68,204.79,282.01,27.11,23.64,24.3,26.55,101.6,1061.87,10.75
364,136,66062,SYDNEY,-33.861,151.205,39,0.08,22.43,10.93,17.61,113.56,148.47,101.85,11.92,381.17,311.58,229.07,300.45,39.65,34.48,33.42,35.55,143.1,1222.27,8.56
365,29,66069,HURSTVILLE,-33.983,151.1,5,0.23,22.33,9.03,23.45,118.15,146.23,96.43,10.38,330.02,247.32,232.34,344.5,32.21,26.97,31.34,33.86,124.38,1154.18,9.18
366,47,66072,KURNELL,-34.016,151.214,3,0.67,22.18,9.02,20.7,105.31,135.88,95.83,10.7,346.9,284.16,226.98,291.93,34.81,29.19,31.51,32.96,128.47,1149.97,8.93
367,50,66080,CASTLE,-33.781,151.204,75,0.97,22.20,8.88,24.04,122.71,180.7,109.56,9.41,382.03,290.81,275.33,366.23,30.22,24.48,26.9,31.36,112.96,1314.4,11.73
368,25,66101,MARRICKVILLE,-33.917,151.167,9,1.89,22.06,9.36,17.2,108.02,124.07,94.03,10.78,373.52,331.44,175.96,249.08,36,33.48,29.24,30.88,129.6,1130,8.69
369,36,66104,LILLI,-34.05,151.15,17,0.97,21.84,9.97,19.22,97.49,156.3,91.93,10.88,356.99,279.35,206.36,258.41,37.72,31.53,29.36,31.92,130.53,1101.11,8.56
370,38,66109,HUNTERS,-33.8,151.1,86,5.4,22.34,8.53,25.21,95.08,126.88,84.55,8.23,328.5,238.57,190.55,258.19,28.03,22.9,23.13,24.9,98.96,1015.81,10.28
371,43,66124,PARRAMATTA,-33.792,151.018,55,12.71,23.25,8.51,24.63,94.77,114.97,80.63,9.33,266.49,188.38,207.58,305.77,29.44,23.56,27.7,31.33,112.03,968.22,8.58
372,45,66130,NORTHBRIDGE,-33.817,151.217,80,1.18,21.92,10.6,19.18,110.87,188.05,107.53,11.42,378.58,309.17,246.65,358.04,36.58,32.16,32.93,35.67,137.34,1292.44,9.29
373,60,66157,PYMBLE,-33.737,151.152,165,6.61,22.21,10.07,19.25,122.91,195.4,112.76,11.44,385.02,304.8,263.84,398.22,36.55,30.08,32.23,38.38,137.24,1351.88,9.87
374,26,66181,OATLEY,-33.977,151.077,42,0.6,22.61,8.46,20.96,107.58,138.01,88.35,9.68,315.16,248.18,215.98,278.24,31.92,25.73,27.58,30.77,116,1057.56,9.12
375,51,66182,FRENCHS,-33.749,151.233,158,2.57,21.70,8.69,21,120.48,177.8,114.42,10.18,401.93,295.78,283.6,393.97,32.63,26.06,29.59,33.9,122.18,1375.28,11.19
376,30,67001,CASTLE,-33.7,151,137,16.78,22.54,9.67,20.8,103.89,148.73,87.34,9.67,314.62,237.38,214.25,282.63,31.93,25.9,27.97,30.23,116.03,1048.88,8.97
377,120,67019,PROSPECT,-33.819,150.913,61,21.7,23.13,8.78,23.42,91.03,112.72,72.38,9.29,242.99,183.95,179.23,262.06,29.34,25,26.8,30.38,111.52,868.23,7.77
378,27,67030,WILBERFORCE,-33.55,150.8,15.2,35.42,23.67,10.07,21.85,94.27,143.82,80.54,10.28,250.87,187.01,196.05,330.3,31.96,26.78,29.96,34.44,123.14,964.23,7.75
379,49,67032,WESTMEAD,-33.814,150.983,26,15.38,23.02,9.18,24.14,104.41,142.25,83.68,9.25,281.61,219.22,200.53,299.51,29.18,24.49,26.39,30.67,110.73,1000.87,9
380,38,67035,LIVERPOOL(WHITLAM,-33.927,150.913,20,13.15,23.01,7.92,24.29,86.54,112.87,71.98,8.65,255.22,170.17,187.09,252.93,27.08,21.97,26.26,28.63,103.94,865.41,8.26
381,31,67042,KINGS,-33.761,150.95,81,19.82,23.37,7.84,24.93,91.42,108.43,72.88,8.91,240.14,165.35,192.92,275.97,28.58,22.35,26,29.93,106.86,874.38,8.12
382,27,67051,BEECROFT,-33.7,151,137,16.78,22.68,9.7,23.89,104.08,133.99,86.61,9.54,314.95,262.12,189.76,269.83,31.33,28.37,25.56,29.3,114.56,1036.66,9.17
383,29,67059,BLACKTOWN,-33.769,150.886,58,27.74,23.35,8.17,25.72,90.19,136.85,72.18,8.42,240.04,166.09,194.07,261.41,26.21,20.34,25.59,28.45,100.59,861.61,8.52
384,40,67070,MERRYLANDS,-33.827,150.977,45,18.27,23.08,8.45,26.38,98.5,138.23,83.92,8.86,279.8,183.34,231.22,310.51,27.65,21.88,26.77,29.95,106.25,1004.87,9.43
385,31,67073,MARALYA,-33.62,150.897,49,25.1,23.51,8.16,26.32,77.34,110.56,69.31,8.36,217.46,160.23,184.39,269.13,25.97,21.55,24.74,28,100.26,831.21,8.32
386,60,68017,CATARACT,-34.233,150.75,159,19.26,21.61,9.3,20.7,92.62,107.23,67.99,9.72,226.93,210.36,160.93,217.52,29.7,31.67,27.2,28.1,116.67,815.74,7.06
387,53,68021,CROOKHAVEN,-34.9,150.7,3,1.38,21.55,9.34,21.79,110.56,138.81,90.51,10.45,339.83,281.82,196.01,269.51,34.15,29.45,29.55,32.28,125.43,1087.17,8.95
388,89,68023,DAPTO,-34.471,150.774,42,5.41,19.96,8.21,28.15,134.68,167.35,99.55,7.81,352.32,250.58,238.07,353.48,24.35,19.81,23.12,26.38,93.66,1194.45,12.71
389,104,68034,JERVIS,-35.094,150.805,85,0.22,20.76,9.36,19.15,99.18,132.58,103.31,11.22,388.77,323.84,246.94,280.19,36.46,31.86,32.39,33.9,134.61,1239.74,9.15
390,44,68037,KENNY,-34.05,150.767,107,25.65,22.81,7.43,24.7,79.31,106.56,65.92,7.59,209.33,173.9,173.6,236.02,23.55,20.89,22.59,24.11,91.14,792.85,8.55
391,57,68041,MENANGLE,-34.1,150.7,83.2,31.36,23.02,6.72,28.93,71.83,80.28,54.28,6.34,176.88,167.93,129.59,176.4,19.75,19.14,18.17,18.84,75.9,650.8,8.49
392,26,68053,PORT,-34.477,150.913,11,0.15,21.37,9.39,25.31,128.5,170.69,105.05,10.1,365,275.41,253.51,367.16,30.69,25.54,29.92,35.15,121.3,1261.08,10.26
393,28,68074,WOLLONGONG,-34.433,150.9,15.2,0.46,21.45,8.89,24.25,129.81,217.75,103.1,9.11,380.29,286.54,235.54,332.84,29.5,23.57,26.5,29.43,109,1235.21,11.08
394,47,68085,NERRIGA,-34.848,150.135,600,42.8,20.24,8.21,26.57,77.39,92.97,68.48,8.41,209.08,176.53,200.21,237.55,24.49,22.53,26.3,27.79,101.11,823.37,8.1
395,44,68086,MOUNT,-34.403,150.843,310,4.97,19.85,10.91,20.61,197.74,238.18,156.98,11.36,555.02,364.23,388.98,565.36,36.25,27.48,32.5,40.11,136.34,1873.59,13.89
396,46,68100,BUNDANOON,-34.652,150.309,680,35.9,19.26,8.94,20.3,108.55,126.74,93.9,10.13,297.15,259.5,263.9,308.65,30.35,26.11,30.85,34.28,121.59,1129.2,9.25
397,45,68110,BERKELEY,-34.483,150.855,5,0.37,21.87,9,22.58,118.62,158.56,92.34,9.82,328.29,224.27,246.23,308.22,31.02,22.6,30.13,33.96,117.71,1107.01,9.32
398,42,68117,ROBERTSON,-34.59,150.609,760,17.69,18.39,9.6,20.86,172.71,264.05,132.42,10.75,470.16,354.41,338.81,430.76,32.4,25.36,33.21,37.98,128.95,1594.14,12.24
399,34,68136,BOMADERRY,-34.85,150.617,7.9,1,22.07,8.15,26.68,123.74,157.18,83.52,8.23,298.73,237.38,175.99,288.67,25.03,22.21,23.82,27.44,98.5,1000.77,10.27
400,39,68137,BROGERS,-34.7,150.683,305,13.15,20.37,10.2,23.41,212.63,288.53,162.94,9.72,588.37,496.47,311.46,559.75,30.2,26.87,26.2,33.44,116.71,1956.05,17.12
401,32,68140,CAPE,-35.167,150.767,0,0.44,20.33,9.44,22.63,118.44,193.08,123.7,9.65,493.08,370.39,285.23,335.32,31.69,27.66,28.47,27.97,115.79,1484.02,12.67
402,36,68142,CORDEAUX,-34.317,150.733,355,18.13,21.10,8.78,21.81,172.44,165.38,125,10.16,433.75,344.52,283.63,441.34,33.31,26.42,29.28,32.97,121.98,1503.24,12.24
403,28,68144,GLENDON,-34.1,150.6,212,38.77,22.84,6.61,33.46,69.75,75.97,53.72,6.05,179.91,117.59,144.04,202.4,18.32,16,18.54,19.46,72.32,643.94,8.91
404,37,68150,NARELLAN,-34.033,150.783,133,23.73,22.87,6.73,29.89,71.22,76.58,55.32,6.64,183.2,163.1,136.77,179.98,20.41,18.97,18.84,21.46,79.68,663.05,8.34
405,40,68169,MOUNT,-34.414,150.857,90,3.7,20.06,9.52,21.73,142.3,190.17,115.86,10.59,419.56,252.87,309.11,407.14,33.42,23.85,32.2,37.6,127.07,1388.68,10.86
406,37,68188,WOLLONGONG,-34.403,150.88,25,1.69,21.96,9.27,21.97,130.79,159.68,110.32,10.35,401.6,259.95,285.12,377.88,33.11,23.08,31.27,36.68,124.14,1324.55,10.57
407,37,68195,MOSS,-34.637,150.403,568,31.33,19.53,9.49,20.43,112.24,143.99,92.6,10.56,306.23,274.92,258.44,270.41,32.13,28.14,31.65,34.97,126.89,1110,8.71
408,34,68200,DOUGLAS,-34.208,150.71,165,23.94,22.95,6.76,30.59,80.11,121.36,62.13,6.49,197.63,149.75,182.01,214.31,20.47,15.68,20.03,21.68,77.86,743.7,9.47
409,104,69006,BETTOWYND,-35.701,149.79,165,32.88,21.20,7.44,26.31,88.05,104.78,64.83,7.77,214.37,162.33,180.97,220.45,22.36,20.07,25.49,25.32,93.24,778.12,8.28
410,133,69018,MORUYA,-35.909,150.153,17,0.16,20.59,8.07,23.87,101.38,120.66,79.76,9.02,279.66,198.63,215.39,263.14,26.85,21.9,28.89,30.55,108.19,956.82,8.83
411,99,69029,EDEN,-37.362,149.698,35,14.31,18.99,7.42,20.91,94.82,94.64,80.63,9.04,239.16,252.7,238.08,237.68,25.09,29.91,30.04,23.43,108.47,967.62,9.22
412,55,69037,BELOWRA,-36.201,149.711,113,33.1,21.23,6.96,31.96,93.62,108.38,68.9,7.16,207.5,161.06,206.45,251.46,20.6,15.51,23.8,25.94,85.85,826.47,9.56
413,58,69041,CHARLEYONG,-35.251,149.916,570,54.23,19.42,6.55,26.83,68.35,75.37,61.54,7.4,178.72,168.67,190.82,199.25,20.69,20.74,24.95,22.41,88.79,737.46,8.28
414,43,69050,COBARGO,-36.297,149.843,135,22.33,20.99,7.47,26.19,112.72,112.85,80.23,8.64,257.25,176.85,239.86,288.8,24.98,20.07,28,30.74,103.79,962.76,9.16
415,37,69078,NETHERCOTE,-37.05,149.733,544,12.99,18.38,7.65,25.62,118.86,119.38,74.74,7.99,240.39,199.45,183.6,275.15,23.35,22.73,25.38,24.84,96.3,898.59,9.6
416,28,69093,MERIMBULA,-36.911,149.902,2,0.55,20.26,7.25,21.25,104.83,74.64,70,8.95,242.84,143.43,215.21,246.54,25.86,21.86,31.54,28.43,107.69,848.02,7.67
417,108,69107,KAMERUKA,-36.738,149.71,125,19.84,21.07,5.82,35.55,91.43,99.82,58.8,5.91,187.88,140.43,165.88,211.39,16.89,13.96,20.11,19.93,70.89,705.58,10.24
418,30,69110,TOWAMBA,-37.093,149.627,244,21.83,19.71,6.8,23.73,93.78,87.07,69.59,7.84,232.72,185.39,227.65,188.56,22.33,22.27,27.8,21.6,94,834.32,8.81
419,28,69127,ARALUEN,-35.686,149.839,145,28.49,21.58,7.18,25.07,92.47,107.45,71.4,8.07,225.45,192.42,204.76,236.48,23.07,19.43,26.57,28.11,97.18,859.11,8.78
420,71,70007,BREADALBANE,-34.767,149.467,671,108.39,19.17,6.73,26.63,51.48,54.02,55.92,7.54,155.35,174.26,178.49,162.57,20.7,28.18,23.49,18.08,90.45,670.67,7.53
421,113,70009,BUKALONG,-36.797,149.197,785,61.73,17.55,6.09,26.71,59.03,66.74,52.47,7.21,149.57,137.07,159.69,183.13,19.54,21.74,24.69,20.43,86.4,629.46,7.69
422,69,70014,CANBERRA,-35.305,149.201,578.4,96.86,19.84,6.06,24.29,53.15,50.21,51.41,8.39,140.75,127.22,179.57,168.31,21.25,29.38,28.97,21.15,100.75,615.85,6.18
423,52,70015,CANBERRA,-35.3,149.1,581,105.37,19.60,7.29,20.94,53.55,54.99,54.51,9.35,163.34,135.64,183.74,171.69,23.79,35.71,30.15,22.64,112.29,654.41,5.85
424,40,76001,ANNUELLO,-34.8,142.75,70,319.83,23.55,4.82,38.85,37.99,30.33,26.14,4.9,74.54,85.22,85.46,68.31,12.88,22,15.43,8.48,58.79,313.53,5.44
425,48,76003,BARING,-35.383,142.067,80,233.94,22.92,6.5,34.65,35.18,23.15,29.07,7,82.12,101.93,94.01,70.93,18.44,32.42,21.77,11.44,84.07,348.99,4.13
426,38,76007,CHINKAPOOK,-35.2,142.95,61,353.52,23.09,4.47,37.97,37.24,27.62,29.93,5.38,84.04,94.86,103.53,76.78,14.1,23.13,18.34,9.03,64.6,359.21,5.47
427,51,76010,CRAMENTON,-34.8,142.467,55,295.26,23.60,4.65,38.49,33.83,30.64,26.37,5.27,74.1,86.55,87.08,68.49,14.14,23.18,17.02,8.82,63.16,316.22,4.97
428,92,76013,GALAH,-35.083,142.182,52,259.2,23.33,5.08,43.17,36.1,22.79,26.74,5.27,71.12,91.69,91.49,66.46,13.19,24.6,17.04,8.48,63.31,320.76,5.15
429,100,76015,IRYMPLE,-34.226,142.151,45,310.73,23.92,4.37,43.12,35.35,26.32,22.72,4.72,60.49,73.77,74.66,63.35,11.78,20.82,15.19,8.75,56.54,272.27,4.77
430,70,76026,MERBEIN,-34.213,142.04,56.4,302.76,23.80,5.51,35.37,32.92,23.29,23.59,6.04,66.73,80.18,76.74,59.57,15.6,28.13,18.51,10.21,72.45,283.22,3.94
431,62,76031,MILDURA,-34.236,142.087,50,304.21,23.83,4.89,37.56,34.93,23.94,23.62,5.61,61.64,75.92,81.42,64.62,13.71,24.53,18.73,10.4,67.37,283.6,4.24
432,60,76032,MILDURA,-34.216,142.167,49,312.51,23.90,4.8,36.7,35.59,23.14,24.67,5.73,65.47,79.46,82.35,68.76,14.38,24.97,18.63,10.78,68.76,296.04,4.31
433,37,76034,MOONDAH,-35,143,56,362.91,23.41,4.73,38.57,34,30.18,25.92,5.2,72.39,87.89,81.75,68.9,13.92,23.41,16.57,8.54,62.44,310.93,4.95
434,78,76035,MORKALLA,-34.294,141.173,57,238.67,23.49,4.44,44.68,31.16,23.63,22.5,4.7,57.95,78.83,80.19,53.83,11.78,21.8,15.17,7.65,56.4,270.8,4.78
435,68,76036,MULCRA,-35.167,141.1,88,169.39,22.96,6.24,32.47,30.62,25.04,26.44,7.25,70.14,95.76,91.26,60.03,18.75,33.88,23.18,11.16,86.97,317.19,3.66
436,72,76037,MURRAY,-34.193,141.6,30,273.29,24.02,4.72,42.06,32.23,29.1,23.38,4.88,60.08,80.96,80.29,59.15,12.4,22.01,15.53,8.57,58.51,280.48,4.76
437,79,76043,NULKWYNE,-34.927,142.176,42,265.24,23.58,4.54,38.28,33.98,22.55,25.42,5.22,68.3,85.32,87.72,63.41,13.54,23.18,17.09,8.9,62.71,304.75,4.9
438,96,76047,OUYEN,-35.069,142.316,50.3,270.42,23.46,5.42,39.32,36.33,25.15,27.47,5.81,73.27,93.6,93.76,68.47,14.22,26.5,19.35,9.55,69.62,329.1,4.78
439,108,76050,PIRA,-35.256,143.368,89,318.51,23.17,4.43,42.63,38.23,30.72,27.46,4.45,75.54,93.83,92.38,67.37,10.96,20.17,14.42,7.82,53.37,329.12,6.19
440,40,76058,TUTYE,-35.2,141.5,51,196.81,23.13,6.43,39.55,32.95,28.74,25.42,6.3,66.86,91.68,84.39,62.47,15.63,30.67,20.1,9.23,75.63,305.4,4.12
441,70,76064,WALPEUP,-35.12,142.004,105,243.25,23.07,6.77,31.71,36.79,24.48,27.87,7.36,74.9,97.62,92.49,68.71,18.39,34.74,23.5,11.7,88.33,333.72,3.78
442,25,76070,WOOD,-35.1,143.35,69,335.02,23.09,4.68,44.32,36.23,28.38,27.33,4.95,75.07,91.58,95.22,64.89,12.6,22.12,16.92,7.72,59.36,326.76,5.56
443,60,76077,MILDURA,-34.183,142.2,53.9,317.27,24.00,4.37,43.25,33.54,25.69,22.45,4.84,61.08,78.85,71.13,58.47,11.9,22.13,15.47,8.5,58,269.53,4.63
444,36,76091,NANDALY,-35.4,142.7,68,328.87,23.00,3.83,52.94,35.71,27.95,24.22,4.04,71.26,89.24,79.77,49.84,9.75,19.36,13.78,5.58,48.47,290.11,6.13
445,41,76106,MURRAYVILLE,-35.248,141.081,100,162.37,23.03,6.02,33.54,32.44,28.8,28.26,6.64,73.7,110.74,95.12,58.98,16.88,32.1,20.61,9.98,79.57,338.54,4.23
446,40,76107,TUTYE,-35.285,141.495,66,191.57,23.27,5.8,33.33,31.3,23.17,27.08,6.77,69.66,97.87,94.07,62.78,16.67,32.33,21.2,11.07,81.27,324.38,3.95
447,40,76108,LINGA,-35.168,141.692,70,213.6,23.49,5.5,35.7,37,24.03,28.31,6.36,73.87,103.22,94.7,67.08,15.2,30.02,20.67,10.5,76.39,338.87,4.4
448,30,76134,LAKE,-34.275,141.588,40,265.96,24.04,4.3,42.23,27.49,20.49,21.11,4.88,46.49,81.38,75.26,50.05,11,22.73,15.97,8.7,58.4,253.18,4.29
449,90,77001,QUAMBATOOK,-35.981,143.648,111,241.09,22.34,5.02,37.09,36.48,30.06,31.95,5.91,87.48,112.3,105.75,77.57,14.72,27.18,19.14,9.84,70.88,383.1,5.42
450,30,77012,BUDGERUM,-35.783,143.667,91,254.01,22.21,3.67,41.17,36.3,28.31,28.3,4.07,84.11,92.42,95.66,67.35,11.2,17.17,13.17,7.4,48.94,339.54,7.05
451,91,77016,BOORT,-35.974,143.61,132,242.78,22.19,4.86,38.89,35.97,29.8,31.12,5.42,86.56,110.73,100.92,74.49,14.21,24.92,16.97,8.85,64.95,372.7,5.72
452,29,77017,GREDGWIN,-36,143.55,102,241.69,21.96,5.14,36.62,34.82,26.23,33.54,5.91,100.62,112.45,112.94,76.92,16,26.03,19.62,9.35,71,402.93,5.67
453,79,77019,KENMARE,-35.917,142.167,85,262.18,22.40,4.71,38.94,39.21,27.78,29.8,5.32,78.88,107.45,101.25,70.03,13.51,24.3,17.73,8.28,63.82,357.61,5.69
454,103,77027,LEAGHUR,-35.965,143.781,90,231.38,22.48,4.41,41.9,37.12,30.91,29.9,4.7,83.04,105.51,97.69,72.15,12.08,21.1,15.15,8.09,56.42,358.39,6.34
455,101,77028,BIRCHIP,-35.796,142.877,91,287.19,22.53,4.77,41.26,39.85,28.88,29.89,5.39,82.95,107.17,99.9,68.69,13.29,24.81,17.6,8.94,64.64,358.71,5.55
456,41,77029,MEATIAN,-35.7,143.3,88,280.61,22.34,5.22,42.88,36.82,31.06,29.63,5.35,85.47,102.69,100.15,66.74,13.63,24.58,17.19,8.68,64.08,355.05,5.68
457,112,77042,SWAN,-35.341,143.553,70,303.33,23.10,5.05,38.34,35.69,27.43,29.19,5.82,83.35,103.39,94.29,69.93,14.37,26.55,19.14,9.76,69.82,350.96,5
458,27,77045,TRESCO,-35.5,143.7,73,282.05,22.92,5.52,41.74,35.51,27.39,26.02,5.64,69.79,95.76,81.88,64.87,14,26.82,17.3,9.59,67.71,312.3,4.59
459,111,77051,RAINBOW,-35.942,141.935,83,202.2,22.79,5.44,41.26,35.17,24.86,28.88,5.75,75.93,109.57,95.27,65.67,14.31,27.61,18.42,8.63,68.97,346.44,5.07
460,60,77053,YANGA,-35.817,143.033,90,287.37,22.37,4.27,44.6,37.41,27.46,28.27,4.66,86.11,99.89,93.14,60.1,12.53,21.42,14.9,7.08,55.93,339.24,6.28
461,27,77057,HOPEVALE,-35.9,142.3,92,265.42,22.23,4.78,50.04,39.04,35.03,28.96,4.88,78.99,116.74,92.5,58.51,11.89,23.63,17.26,5.63,58.41,346.74,5.95
462,41,77060,FAIRLEY,-35.7,143.9,76.2,255.09,22.59,4.51,45.17,35.21,30.25,26.7,4.67,74.64,99.8,83.46,62.57,11.29,21.81,14.85,8.07,56.02,320.47,5.85
463,27,77061,GOSHEN,-35.5,143.5,92,288.86,22.67,4.85,39.56,34.56,30.62,28.39,4.98,81.43,108.68,88.34,66.05,12.41,24.04,16.11,7.37,59.93,344.5,5.74
464,34,77063,JERUK,-36.017,143.383,104,245.11,22.25,5,42.18,38,32.38,30.07,5.46,90.59,115.4,96.3,59.82,13.35,26.09,18.53,7.53,65.5,362.11,5.57
465,29,77065,LALBERT,-35.7,143.5,88,274.78,22.56,4.28,48.48,31.7,28.61,25.56,4.43,71.01,100.9,80.31,53.12,10.93,20.38,15.24,6.55,53.1,305.34,5.82
466,58,77069,TOWANINNIE,-35.9,143.4,99,256.65,22.24,5.12,40.93,37.43,24.31,27.72,5.31,78.01,103.31,90.9,61.79,13.05,25.74,16.72,8.26,63.77,334.01,5.2
467,40,77082,BEULAH,-35.934,142.281,95,261.47,22.68,5.35,36.1,32.58,21.31,29.01,6.25,80.76,102.69,100.35,63.32,15.2,29.63,20.23,9.82,74.88,347.12,4.59
468,54,77085,DUMOSA,-35.933,143.217,97,259.48,22.13,4.94,43.74,35.86,26.53,27.24,4.9,77.07,103.7,87.28,60.15,12.11,24.13,15.28,7.46,58.98,328.2,5.65
469,32,77087,HOPETOUN,-35.725,142.366,76.2,285.46,22.82,5.13,37.25,37.76,26.92,29.02,6.14,87.28,100.05,99.42,61.72,15.72,28.56,20.28,9.16,73.72,348.47,4.64
470,92,78003,BANGERANG,-36.105,142.608,99.1,250.23,22.09,5.24,37.11,36.22,23.18,29.48,6.13,82.57,106.77,100.27,64.1,15.38,28.61,20.42,9.12,73.53,353.71,4.82
471,52,78007,COPE,-36.45,143.1,121,222.32,21.40,4.69,39,35.46,34.93,31.93,4.99,85.55,128.03,103.95,66.29,12.1,23.23,16.92,7.69,59.94,383.82,6.49
472,74,78008,DIAPUR,-36.3,141.45,99,148.44,21.37,7.47,30.46,37.17,35.11,35.99,7.94,94.75,147.15,118.75,71.68,20.32,37.6,25.58,11.77,95.27,432.33,4.61
473,81,78011,DONALD,-36.4,143,114,223.58,21.72,5.95,32.67,39.96,29.95,34.14,7.05,96.92,128.13,111.81,73.09,17.49,32.7,23.27,11.12,84.58,409.95,4.9
474,121,78014,GLENLEE,-36.258,141.859,123,213.26,22.01,7.07,31.85,37.67,27.39,32.77,7.8,86.7,125.47,108.59,72.54,19.25,37.26,25.32,11.78,93.61,393.3,4.2
475,56,78019,KATYIL,-36.3,142.1,129.8,219.28,21.71,6.25,34.43,40.62,27.73,34,7.18,91,131.05,111.92,74.67,17.54,34.48,23.57,10.61,86.2,408.64,4.8
476,39,78021,LAKE,-36.1,141.95,97.5,239.88,22.23,5.56,40.03,40.06,28.8,29.62,6.07,80.06,112.45,96.53,67.69,15.05,29,19.82,9,72.87,356.73,4.94
477,73,78035,SHEEP,-36.35,142.5,137.2,222.46,21.64,4.52,44.74,37.01,31.35,30.53,4.62,83.03,117.74,99.42,66.29,11.36,22.37,15.11,6.64,55.48,366.48,6.74
478,73,78036,WARMUR,-36.15,142.8,112.8,247.26,21.90,4.64,40.99,33.17,27.89,28.63,5.04,80.69,106.32,94.66,62.11,12.94,23.04,16.67,7.89,60.54,343.78,5.69
479,120,78041,WOOROONOOK,-36.248,143.179,134,230.06,22.10,4.02,41.15,36.74,28.63,30.92,4.57,85.6,115.82,102.56,66.97,11.47,20.77,15.32,7.2,54.76,370.95,6.77
480,36,78051,BRIM,-36.083,142.417,99,247.12,22.06,5.06,37.67,40.03,31.89,30.43,5.22,90.74,113.14,101.07,60.29,13.39,24.47,16.78,7.92,62.56,365.24,6.51
481,30,78054,CARRON,-36.25,142.75,113,235.63,21.64,5.17,40.27,40.27,25.72,30.58,5.32,91.56,119.19,96.55,59.87,12.67,25.07,18.57,7.47,63.78,367.17,5.8
482,25,78056,DONALD,-36.383,142.983,113,225.02,21.49,4.64,44.04,44.1,32.86,32.73,4.71,100.66,119.57,106.08,66.12,12.56,21.96,14.8,7.12,56.44,392.43,6.97
483,26,78061,MOUNT,-36.3,143.15,172,226.25,21.32,4.77,39.73,40.83,30.2,32.18,4.76,103.31,126.63,97.92,58.95,12.31,22.11,15.81,7,57.23,386.81,6.81
484,43,78070,WINIAM,-36.4,141.7,141,193.62,21.19,5.84,36.44,36.35,33.89,33.6,6.35,89.55,135.67,112.54,65.78,16.02,29.86,20.7,9.6,76.18,403.54,5.34
485,42,78072,DONALD,-36.37,142.971,114,226.23,22.03,6.43,30.17,36.25,24.49,31.62,7.27,84.53,114.28,104.41,75.52,17.74,33.31,23.5,12.62,87.17,378.74,4.32
486,39,78077,WARRACKNABEAL,-36.261,142.405,113.4,227.53,22.24,7.23,28.92,32.27,31.81,32.72,8.01,86.57,120.56,113.14,71.51,19.56,37.21,26.1,13.18,96.05,391.78,4.04
487,78,79004,BELLELLEN,-37.15,142.65,232,135.58,19.77,7.89,33.76,47.58,47.33,49.03,7.79,133.29,205.57,155.25,94.35,19.82,36.67,25.41,11.61,93.51,588.46,6.33
488,80,79007,CHARAM,-36.983,141.467,146,125.62,19.98,10.07,22.91,38.98,51.44,48.86,11.22,131.4,206.9,164.12,83.56,29.95,49.99,37.54,17.17,134.65,585.98,4.38
489,105,79008,CLEAR,-36.939,141.871,155,146.54,20.52,7.3,31.5,38.93,39.95,41.76,8,108.29,171.19,141.22,79.88,19.95,36.77,26.99,12.16,95.87,500.58,5.28
490,43,79012,ELDERSLIE,-37.1,141,105,88.31,20.09,8.28,32.19,35.44,52.71,49.66,8.94,135.66,216.57,156.1,87.72,23.88,39.65,30.33,13.4,107.26,596.05,5.59
491,98,79018,GOROKE,-36.827,141.468,162,142.21,20.46,7.26,34.1,37.33,43.55,42.75,7.36,113.08,186.29,139.32,74.42,18.4,34.59,24.57,10.83,88.39,513.11,5.89
492,81,79020,HALLS,-37.2,142.5,821,128.33,14.95,9.32,25.63,55.42,82.2,76.87,9.88,193.15,351.69,253.38,124.73,25.47,43.97,32.4,16.7,118.54,922.95,8.06
493,44,79024,JALLUKAR,-37.2,142.7,243.8,131.01,19.49,7.34,34.93,42.57,48.39,46.02,6.89,117.37,199.3,149.62,87.22,16.39,32.27,22.86,11.27,82.79,553.51,6.68
494,126,79035,MURTOA,-36.621,142.474,144.7,192.26,21.41,7.17,31.66,37.67,26.12,35.21,8.26,95.8,134.72,117.16,74.57,20.84,38.9,27.02,12.37,99.13,422.25,4.31
495,64,79038,POMONAL,-37.2,142.6,320,129.38,18.94,7.56,30.36,47.28,62.38,59.96,7.87,156.42,266.67,194.03,102.22,20.14,35.28,26.48,12.48,94.38,719.34,7.61
496,111,79039,REDBANK,-36.907,143.338,260,160.18,20.44,7.13,31.23,45.48,46.65,47.99,7.55,126.85,204.41,151.33,92.95,19.01,34.6,25.04,11.9,90.55,575.54,6.47
497,50,79041,SLATY,-36.55,143.3,231.6,195.47,21.10,7.8,30.42,37.22,39.28,38.15,7.57,101.77,152.64,122.79,80.54,18.4,35.28,24.38,12.82,90.88,457.74,5.11
498,50,79044,TELANGATUK,-37.1,142,189,130.07,19.90,10.92,25.48,38.52,51.12,47.28,10.88,126.47,191.58,156.84,93.71,28.6,49.24,35.26,17.44,130.54,568.6,4.39
499,116,79046,WARTOOK,-37.094,142.434,440,139.76,18.06,11.42,24.05,48.02,80.42,72.94,11.59,190.95,326.06,233.91,123.89,30.51,51.77,38.03,18.66,138.97,874.81,6.38
500,77,79047,WARTOOK,-37,142.35,167.6,146.9,19.50,6.64,33.36,40.53,42.83,48.53,6.95,132.68,204.66,154.97,89.62,18.23,31.62,23.51,9.99,83.35,581.93,7.14
501,30,79054,BROOKRET,-36.6,142.7,145,196.55,21.02,5.4,42.03,42.33,25.62,33.64,5.9,92.37,138.97,105.56,70.04,14.63,28.23,19.67,8.37,70.9,406.94,5.94
502,36,79056,EMU,-36.7,143.4,215,176.58,20.66,8.67,30.81,45.36,43.31,43.08,7.88,121.55,186.37,135.54,73.65,19.81,37.53,25.22,11.94,94.5,517.11,5.42
503,30,79059,GOWAR,-36.6,143.4,180,186.31,21.11,6.4,35.5,41.53,32.71,37.22,6.26,108.24,153.23,118.19,68.49,15.43,30.27,20.77,8.77,75.24,448.15,5.92
504,42,79069,WALLALOO,-36.7,142.9,165,189.11,20.74,6.76,36.76,35.51,33.6,37.34,6.92,109.94,156.15,119.61,61.15,17.36,33.55,22.71,9.38,83,446.85,5.5
505,40,79078,TELANGATUK,-37.061,141.988,175,134.34,20.40,8.15,24.17,36.55,37.81,41.78,9.26,108.42,170.51,147.76,73.78,22.73,42.7,30.98,14.75,111.16,500.47,4.5
506,28,79080,STAWELL,-37.072,142.791,203,146.74,19.91,8.89,23.86,41.02,42.02,48.01,9.63,130.73,194.61,157.69,94.01,23.57,45.75,31.25,15.11,115.68,577.04,4.96
507,50,79082,HORSHAM,-36.701,142.201,140,176.23,21.37,6.34,29.8,33.62,25.18,34.43,7.71,90.7,132.65,116.88,72.13,19.02,36.12,25.22,12.12,92.48,412.36,4.45
508,28,79089,PARADISE,-36.83,143.106,256,181.65,20.50,7.32,26.61,43.88,40.86,47.21,7.97,124.67,189.75,159.15,93.04,19.61,37.46,26.64,12.18,95.89,566.61,5.93
509,90,80003,CALIVIL,-36.267,144.083,104.9,190.26,21.86,4.01,43.74,39.79,37.48,31.19,4.26,90.37,110.19,100.49,73.9,11,19.13,13.81,7.21,51.15,374.95,7.59
510,121,80004,CANARY,-35.974,143.852,86,228,22.60,4.83,40.2,38.25,28.69,30,5.25,85.05,106.72,97.26,71.08,13.4,24.07,16.84,8.71,63.02,360.11,5.79
511,91,80006,CHARLTON,-36.3,143.4,116.7,215.6,21.51,6.37,33.11,40.73,30,35.58,7.19,102.19,137.38,109.75,77.85,18.27,32.99,23.26,11.78,86.3,427.17,4.99
512,121,80009,ST,-36.478,143.353,205,200.32,21.53,6.7,32.91,38.91,29.38,36.11,7.07,102.29,137.18,115.44,78.23,17.74,32.86,23.15,11.03,84.78,433.14,5.09
513,69,80010,CORNELIA,-36.25,144.8,105,177.11,21.50,5.57,40.64,37.7,33.4,33.25,5.82,97.47,115.74,105.19,80.5,15.16,27,18.62,9.12,69.9,398.9,5.91
514,79,80012,DINGEE,-36.367,144.233,105.5,175.47,21.62,4.51,39.61,38.51,35.55,32.92,4.91,93.75,119.27,104.06,77.33,12.92,21.87,15.6,8.39,58.78,394.41,6.72
515,113,80015,ECHUCA,-36.165,144.764,96,186.77,22.02,6.44,32.73,39.65,33.98,36.13,7.13,107.54,128.37,114.78,83.06,18.49,32.12,23.03,11.95,85.59,433.75,5.08
516,57,80018,GLENLOTH,-36.1,143.4,115.8,235.98,22.00,5.46,41.47,39.48,34.93,31.5,5.81,92.83,117.1,103.06,64.93,15.05,27.21,18.97,8.56,69.79,377.92,5.45
517,128,80023,KERANG,-35.724,143.92,77.7,252.04,22.79,5.23,36.24,37.99,27.47,31.05,5.98,88.26,108.31,102.09,73.56,15.19,26.75,19.48,10.35,71.77,372.22,5.42
518,82,80028,KYABRAM,-36.317,145.05,105.8,169.73,21.39,5.52,36.06,41.42,37.25,37.26,6.41,107.67,138.46,116.04,85.25,16.81,28.9,20.37,10.85,76.93,447.42,6.04
519,127,80029,LAKE,-36.151,143.518,110,226.85,22.29,4.8,41.1,36.7,28.68,31.09,5.27,90.76,113.14,102.2,66.79,13.17,24.38,17.15,8.52,63.22,372.89,5.93
520,55,80030,LEITCHVILLE,-35.9,144.3,91.4,222.59,22.17,4.18,39.11,38.6,28.68,30.92,5.07,90.28,114.3,94.04,72.29,13.31,23.11,15.89,8.49,60.8,370.91,6.13
521,58,80033,MACORNA,-35.9,144,82.9,231.18,22.34,5.03,38.97,37.58,29.13,29.4,5.49,82.65,103.78,95.86,69.74,14.05,25.17,17.69,8.97,65.88,352.03,5.38
522,122,80039,YARRAWALLA,-36.186,144.057,100,199.49,22.20,4.45,41.22,37.08,31.66,30.47,4.68,86.28,108.1,99.58,72.39,12.14,21.26,15.05,7.68,56.13,366.35,6.57
523,88,80044,PATHO,-35.998,144.424,90,209.49,22.12,5.26,35.59,36.84,31.5,31.31,5.78,89.86,106.39,100.38,78.57,14.98,25.03,18.9,10.39,69.3,375.2,5.47
524,86,80053,TANDARRA,-36.43,144.25,110,168.36,21.59,5.53,36.85,36.84,33.44,33.96,5.8,93.85,119.89,111.9,81.38,14.94,25.59,18.69,10.37,69.59,407.02,5.94
525,39,80057,TONGALA,-36.2,145,101,182.45,21.50,6,33.03,39.74,40.2,35.81,6.68,103.5,126.13,112.99,85.49,17.05,30.15,21.28,11.54,80.02,428.11,5.42
526,56,80059,STRATHMERTON,-35.917,145.4,106.7,217.87,22.32,5.21,38.05,42.46,33.01,37.13,5.69,108.11,122.17,119.04,96.15,15.14,25.21,17.96,9.98,68.29,445.47,6.51
527,28,80064,YALCA,-36,145.3,105,207.21,22.01,6.18,32.36,39.94,32.46,34.01,6.91,94.87,114.27,105.05,93.11,17.46,31.18,22.04,12,82.68,407.3,4.89
528,46,80068,BAMAWM,-36.25,144.6,137.2,179.13,21.53,5.61,37.67,37.68,30.29,32.78,5.74,91.82,123.54,101.97,76.29,14.11,27.04,18.13,9.56,68.84,393.62,5.75
529,28,80070,COBRAM,-35.9,145.7,118,226.36,22.54,4.96,40.54,43.01,36.82,36.53,5.28,101.64,140.13,108.43,88.23,13.14,24,16.68,9.57,63.39,438.43,7.03
530,39,80072,KAARIMBA,-36.1,145.3,105,196.26,21.96,4.97,38.31,43.38,37.35,38.56,5.61,114.23,142.2,124.03,82.73,13.9,24.69,18.8,10,67.39,463.19,7
531,39,80073,KERANG,-35.8,143.933,82,243.61,22.53,4.46,41.54,32.05,26.25,28.32,4.68,89.42,102.43,88.14,60.43,12.2,21.61,14.67,7.59,56.07,340.42,6.05
532,34,80076,MITIAMO,-36.217,144.233,98,191.45,21.94,4.85,46.47,39.69,27.61,30.52,4.79,91.67,118.4,94.47,63.18,12.68,23.06,14.82,7.03,57.59,367.72,6.78
533,45,80091,KYABRAM,-36.335,145.064,105,167.79,21.47,6.73,32.27,38.83,32.96,37.06,7.67,105.11,127.29,121.79,89.64,18.8,34.53,25.13,13.44,91.9,443.83,4.79
534,41,80095,KOTTA,-36.223,144.537,101,183.02,21.92,6.41,32.73,38.18,31.34,34.86,6.54,95.8,120.22,114.24,87.35,16.81,29.42,20.81,11.37,78.41,417.61,5.29
535,36,80096,PYRAMID,-36.088,144.092,100,208.83,22.23,5.5,31.36,36.5,28.99,32.38,6.22,88.87,107.07,112.29,79.17,15.22,27.58,20.25,11.36,74.41,387.4,5.15
536,40,80098,PRAIRIE,-36.298,144.139,103,185.29,21.99,5.38,31.17,37.23,30.57,33.79,6.4,91.89,114.77,115.71,82.61,15.5,28.67,20.5,12.02,76.69,404.98,5.24
537,50,80110,GOULBURN-MURRAY,-35.736,143.93,75,250.46,22.73,5.16,35.06,36.13,23.24,30.17,5.94,82.02,101.53,104.72,73.12,14.94,26.32,19.38,10.64,71.28,361.39,5.08
538,36,80117,YALLOOK,-36.433,144.167,116,170.33,21.67,5.69,37.14,39.07,32.11,35.03,6.48,103.56,134.16,109.49,74.43,16.17,30.92,20.64,10.11,77.84,421.64,5.4
539,32,80125,ULUPNA,-35.888,145.388,105,220.84,22.61,5.47,32.59,39.75,32.84,34.65,6.1,96.09,119.61,114.48,83.67,14.25,26.59,20.38,11.91,73.13,413.85,5.67
540,29,80126,KERANG,-35.717,143.911,77.2,252.93,22.95,5.62,34.52,37.18,26.22,29.72,6.5,74.61,105.7,97.82,77.34,14.55,29.9,21.21,12.28,77.94,355.47,4.52
541,52,81001,LONGLEA,-36.8,144.4,189,125.12,20.65,5.86,35.38,45.64,44.11,42.69,6.35,117.75,168.4,130.54,96.71,15.81,28.81,20.96,10.73,76.31,513.4,6.7
542,107,81006,BURKES,-36.672,143.552,198,172.43,21.10,6.33,32.57,37.47,33.85,37.33,6.89,102.04,143.95,118.93,83.25,17.51,31.71,22.11,11.35,82.68,448.17,5.45
543,105,81007,CANIAMBO,-36.457,145.657,130,167.13,21.69,5.46,33.63,44.24,40.52,43.22,6.5,123.74,160.09,134.53,100.43,16.72,29.36,20.91,10.99,77.98,518.79,6.62
544,109,81008,COLBINABBIN,-36.542,144.775,144,144.95,20.77,7.88,30.16,43.49,38.98,42.62,8.32,117.78,155.76,137.13,100.29,20.42,39.17,26.51,13.66,99.76,510.96,5.15
545,53,81009,COOMA,-36.4,145.1,108.5,160.87,21.17,5.24,41.43,41.7,45.61,36.32,5.23,101.56,135.29,114.68,84.49,13.53,24.11,16.32,8.83,62.79,436.02,6.94
546,61,81012,DEVENISH,-36.3,145.9,143.9,191.95,21.95,6.54,37.36,43.81,42.86,43.04,6.63,121.37,163.52,131.04,100.15,17.05,30.79,20.87,10.79,79.5,516.08,6.54
547,37,81015,EAGLEHAWK,-36.733,144.233,219,137.09,20.15,6.95,28.05,41,48.09,44.94,7.89,125.03,171.67,144.54,97.7,19.68,35.7,25.62,13.73,94.73,538.94,5.7
548,111,81026,LAANECOORIE,-36.834,143.892,170,144.22,21.21,6.47,31.62,37.76,34.73,38.04,7.46,104.48,144.53,121.81,85.54,18.41,34.19,24.4,12.52,89.52,456.36,5.08
549,78,81029,BOXWOOD,-36.3,145.8,140,188.08,21.91,6.27,36.08,43.06,39.53,43.31,6.14,125.08,165.62,132.86,96.41,15.8,28.44,19.19,10.28,73.71,519.97,7.07
550,67,81049,TATURA,-36.438,145.267,114,158.84,21.18,7.03,28.34,39.42,32.29,40.15,8.06,112.49,139.79,130.33,98.5,20.46,35.84,26.42,13.91,96.63,481.11,4.95
551,29,81081,BUNG,-37.1,143.6,281,129.35,19.89,5.24,36.9,48.05,46.23,41.65,5.39,121.1,166.76,129.38,83.14,14.62,24.28,17.03,8.93,64.86,500.38,9.44
552,43,81083,EPPALOCK,-36.847,144.527,201,115.84,20.67,7.09,26.23,39.35,35.86,43.01,8.26,117.18,158.65,137.49,103.72,20.91,37.74,25.93,14.63,99.21,517.04,5.14
553,33,81084,LEMNOS,-36.361,145.459,113.4,171.18,21.42,8.21,29.7,41.46,39.98,47.02,9.2,136.9,167.2,145.14,115.88,23.67,42.61,29,15.27,110.55,565.12,5.1
554,40,81090,MOLIAGUL,-36.745,143.679,256,160.37,20.97,5.43,30.65,43.76,46.99,44.12,6.18,118.28,166.45,146.36,96.82,15.95,26.75,20.3,11.02,74.02,527.91,7.12
555,40,81092,EASTVILLE,-36.864,143.978,183,138.66,20.97,6.35,25.15,42.95,25.88,40.13,7.76,108.07,138.62,133.04,101.54,19.55,34.38,24.83,14.35,93.11,481.27,5.14
556,39,81095,MURCHISON,-36.59,145.312,119,143.15,21.24,5.85,30.82,40.16,35.74,44.06,6.54,115.49,159.9,144.37,107.73,16.67,29,20.82,11.97,78.46,527.49,6.84
557,34,81115,WANALTA,-36.628,144.873,115,134.87,21.24,6.62,29.09,45.34,39.87,40.81,7.47,100.27,150.6,138.17,101.43,17.88,33.76,24.32,13.65,89.61,490.47,5.41
558,30,81116,CHESNEY,-36.456,146.024,168,181.9,21.76,7.17,25.3,41.53,42.48,46.97,8.21,123.07,185.54,151.83,103.22,19.53,38.53,26.17,14.27,98.5,563.66,5.64
559,25,81118,KNOWSLEY,-36.809,144.62,213,117.8,20.76,5.92,30.24,44.66,36.97,42.95,6.55,99.02,163.42,137,114.34,15.4,29.28,21,12.68,78.36,513.78,6.55
560,123,82002,BENALLA,-36.548,145.97,169.5,170.61,21.83,7.7,29.32,48.64,47.54,55.97,8.15,156.91,217.72,177.4,119.57,20.46,36.95,26.37,13.98,97.76,671.6,6.93
561,63,82005,BETHANGA,-36.1,147.1,528,200.49,19.07,7.57,26.97,48.82,57.06,63.4,8.3,175.51,244.46,196.51,143.86,21.49,35.79,26.38,15.86,99.52,760.34,7.62
562,98,82006,BOORHAMAN,-36.222,146.283,142,216.15,22.09,6.76,32.26,44.99,42.68,48.78,7.2,131.22,182.46,154.82,116.86,18.4,32.79,22.75,12.49,86.43,585.36,6.74
563,98,82009,CARBOOR,-36.609,146.537,238,169.95,20.71,8.1,26.92,54.08,77,76.19,8.32,200.93,322.41,238.77,152.49,21.08,37.01,26.9,14.87,99.86,914.6,9.24
564,68,82014,CUDGEWA,-36.2,147.9,152.4,179.84,20.46,7.65,31.5,48.19,59.46,65.07,7.8,169.15,251.15,206.09,153.57,19.46,33.65,24.91,15.59,93.61,779.96,8.43
565,106,82021,INDIGO,-36.096,146.601,200,216.2,21.78,6.6,32.19,43.62,44.19,50.98,7.01,136.38,196.28,160.19,118.93,17.92,31.56,22.04,12.53,84.05,611.78,7.31
566,96,82039,RUTHERGLEN,-36.105,146.509,175,219.04,22.10,7.55,28.1,42.89,44.67,48.66,8.41,129.79,180.35,157.47,115.81,20.72,37.78,27.21,15.19,100.9,583.42,5.73
567,63,82040,RUTHERGLEN,-36.05,146.4,121.9,229.05,22.36,5.68,32.67,46.82,41.7,45.22,6.63,125.21,166.06,136.86,114.35,16.44,28.98,21.09,12.95,79.46,542.48,6.97
568,108,82053,WANGARATTA,-36.367,146.3,150,203.65,21.94,7.33,29.24,49.1,45.1,53.23,8.14,150.05,201.7,169.3,117.58,20.93,36.02,26.25,14.52,97.72,638.63,6.59
569,84,82054,WARRENBAYNE,-36.65,145.883,259,156.93,21.05,9.63,29.38,50.03,58.29,62.03,9,175.56,260.73,184.54,123.42,23.26,42.31,28.2,14.2,107.97,744.25,7.24
570,86,82056,WODONGA,-36.117,146.9,152,203.87,21.99,6.74,28.9,48.85,50.14,59.81,7.98,164.81,240.16,182.55,130.17,20.79,35.74,25.13,14.07,95.73,717.69,7.49
571,36,82059,STANLEY,-36.417,146.767,746,177.71,16.95,11.19,21.19,63.14,120.15,104.72,11.1,296.11,430.37,343.96,186.81,29.69,46.75,36.53,20.39,133.36,1257.25,9.34
572,57,82061,SWANPOOL,-36.702,146.034,235,159.49,21.14,9.32,26.21,58.1,75.84,74.1,8.94,202.45,304.62,233.43,149.8,22.49,40.14,29.51,15.19,107.33,890.3,8.19
573,27,82065,WYEEBOO,-36.283,147.4,303,175.41,20.77,8.63,23.26,51.77,82.16,79.51,8.97,223.19,301.93,268.83,159.94,23.78,36.56,30.59,16.82,107.75,953.89,8.76
574,37,82085,RUTHERGLEN,-36.1,146.55,191,217.85,21.87,7.43,32.16,47.81,45.23,49.13,8.03,134.37,192.84,144.33,116.11,20.43,36.78,24.59,14.35,96.15,587.65,6.12
575,26,82086,SNOWY,-36.6,147.4,122,140.64,16.98,7.81,25.81,61.94,98.95,90.18,8.57,239.76,386.65,296.56,159.21,21.58,37.96,28.23,15,102.77,1082.18,10.63
576,37,82088,WODONGA,-36.135,146.889,158,202.32,20.88,7.89,23.89,48.48,65.1,62.79,8.78,171.52,252.64,199.28,128.1,22.3,39.13,28.16,15.73,105.32,751.54,7.07
577,42,82090,DEDERANG,-36.479,147.03,261,162.06,21.41,8.1,26.88,60.4,76.56,76.57,8.22,194.18,314.7,252.84,156.04,20.98,36.45,26.69,14.5,98.62,917.76,9.44
578,30,82093,GLENROWAN,-36.466,146.222,305,190.62,21.07,7.77,26.17,51.41,52.7,57.39,8.33,166.86,210.25,179.48,133.84,21.93,36.83,25.97,15.3,100.03,690.43,6.8
579,36,82097,BULLIOH,-36.187,147.305,210,187.21,20.99,8.5,23.75,53.33,68.03,75.88,9.07,193.28,299.97,247.67,168.88,22.75,38.53,30.31,17.14,108.73,909.8,8.35
580,25,82098,TATONG,-36.75,146.118,250,159.95,20.52,8.84,25.12,55.42,61.41,70.36,9.23,199.59,272.17,221.84,149.06,23.08,41.16,30.6,15.84,110.68,842.66,7.54
581,40,82102,BULLIOH,-36.143,147.377,320,191.11,20.10,8.4,26.35,54.82,76.34,77.69,8.48,193.55,322.46,244.82,170.77,20.67,36.1,28.67,16.3,101.74,931.6,9.07
582,39,82109,MOLYULLAH,-36.613,146.113,210,171.65,21.27,7.23,28.67,51.22,53.66,60.31,7.95,161.19,227.88,196.89,137.81,19.56,35.28,26.15,14.41,95.4,723.77,7.54
583,28,82121,OVENS,-36.35,146.342,145,203.48,21.79,7.5,25.89,45.36,49.6,52.57,8.6,146.26,194.12,173.31,116.76,22.04,38.04,27.96,15.14,103.18,630.45,6.02
584,26,82134,WARRENBAYNE,-36.694,145.878,225,152.57,20.40,7.61,26.46,55.55,67.77,72.5,8.7,181.85,328.39,227.86,130.75,20.15,39.81,28.77,15.39,104.12,868.85,8.29
585,50,83002,BARJARG,-37,146,313.3,144.38,20.10,6.68,33.34,61.8,75.14,66.87,6.66,190.15,281.63,209.58,121.37,16.86,29.9,22.12,10.96,79.84,802.73,9.99
586,129,83025,OMEO,-37.101,147.598,685,83.32,17.97,7.5,19.26,46.66,44,56.19,10.18,148.24,164.92,196.12,165.05,27.03,37.76,34.32,22.98,122.09,674.33,5.56
587,67,83029,TOLMIE,-37,146.2,762,150.85,19.26,7.79,27.97,57.45,64.15,70.38,8.29,193.26,268.58,235,146.7,21.03,36.1,27.4,14.81,99.34,843.54,8.59
588,57,83035,OMEO,-36.926,147.423,800,104.7,11.96,6.89,20.09,58.41,74.07,75.67,9.27,182.03,259.32,285.6,181.98,23.47,33.33,33.14,21.37,111.31,908.93,8.13
589,40,83064,BENAMBRA,-36.941,147.778,718,100.31,17.40,6.22,21.45,45.24,47.71,56.13,8.36,134.18,185.06,198.49,156.33,20.65,31.13,29.88,18.75,100.41,674.06,6.7
590,40,83065,CHESHUNT,-36.819,146.482,270,159.91,17.38,10.15,23.8,65.8,109.35,93.32,9.21,235.54,400.45,296.42,187.06,22.75,41.67,29.83,16.1,110.35,1119.47,10.02
591,30,83074,LAKE,-36.914,146.386,440,156.23,19.72,10.73,22.3,70.57,121.93,101.87,10.7,248.51,454.9,334.37,184.23,26.03,48.2,34.97,19.2,128.4,1222.01,9.42
592,124,84005,BUCHAN,-37.504,148.169,140,34.11,20.05,6.35,20.55,67.55,71.39,68.38,9.14,186.42,205.75,226.96,200.4,24.6,31.28,31.8,21.88,109.56,819.53,7.67
593,125,84030,ORBOST,-37.692,148.459,41,12.66,20.25,7.05,19.63,75.23,82,70.75,9.58,210.53,213.29,220.31,204.54,26.57,32.45,32.23,23.66,114.91,848.67,7.61
594,85,84037,TONGIO,-37.179,147.708,378,73.74,18.29,6.13,22.05,53.01,49.24,53.86,8.46,142.43,152.52,188.11,163.54,22.15,28.71,30.29,20.29,101.44,646.6,6.46
595,56,84044,BLACK,-37.007,148.267,919,89.22,15.69,7.79,15.8,50.55,56.45,61.06,11.21,161.5,160.84,223.36,187.04,29.68,36.86,39.29,28.79,134.62,732.74,5.45
596,29,84052,BUCHAN,-37.5,148.183,104,34.63,20.32,7.03,23.45,74.48,97.13,74.26,8.2,201.06,235.52,239.38,213.35,22.03,28.9,27.41,20,98.34,889.31,9.23
597,46,84070,POINT,-37.802,149.275,27,0.36,19.19,8.33,15.65,74.12,74.63,79.36,11.48,245.88,282.1,233.7,190.96,33.04,40.24,38.06,26.33,137.67,952.64,6.86
598,40,84083,LAKES,-37.869,147.996,43,1.29,19.41,6.8,16.88,59.92,51.77,59.67,10.27,185.22,168.04,192.54,171.76,28.05,34.65,36.15,24.6,123.45,717.56,5.79
599,40,84093,BETE,-37.713,148.395,20,10.81,20.42,7.47,15.73,71.25,61.54,69.24,10.76,200.12,208.87,226.44,194.48,29.13,36.58,36.55,26.85,129.11,829.91,6.41
600,40,84096,BUCHAN,-37.546,148.136,240,29.31,19.65,6.22,21.9,60.18,57.42,64.57,8.35,174.06,187.57,227.09,185.4,22.55,27.7,29.55,20.3,100.1,774.12,7.75
601,39,84100,BAIRNSDALE,-37.833,147.621,10,3.75,20.23,8.03,17.2,56.67,52.66,55.46,10.4,156.45,152.66,189.1,170.38,27.72,35.31,36.9,24.8,124.73,668.59,5.34
602,38,84106,BENDOC,-37.224,148.824,900,62.67,15.32,8.29,14.13,79.74,85.37,97.5,12.16,268.09,338.82,326.84,239.12,33.42,41.37,41.82,29.58,146.19,1172.87,8.02
603,39,84107,WULGULMERANG,-37.083,148.279,914.4,80.78,16.58,7.05,17.9,48.5,57.54,57.94,9.84,149.84,150.17,214.74,183.09,26.8,30.69,34.59,25.87,117.95,697.84,6.03
604,37,84122,GENOA,-37.477,149.639,21,4.49,18.89,9.32,14.97,89.72,89.43,80.4,12,238.59,262.34,258.31,203.61,34.35,43.05,39.27,27,143.67,962.85,6.68
605,35,85002,ALDIVALOCH,-38.4,146.3,289.6,31.18,17.66,10.09,18.14,51,84.54,86.82,11.85,262.27,299.85,279.79,199.12,34.43,42.94,39.91,24.54,141.82,1041.03,7.66
606,83,85003,ALBERTON,-38.617,146.667,10,3.27,18.42,7.32,20.02,49.71,52.65,58.29,9.54,176.4,183.68,193.93,146.26,28.59,35.37,30.77,19.75,114.48,700.27,6.34
607,36,85010,BENGWORDEN,-37.967,147.467,27,6.29,19.61,8.03,18.94,60.13,59.12,51.66,10.1,160.13,124.19,173.89,160.8,28.06,35.33,34.72,23,121.11,619.01,5.12
608,85,85011,BLACKWARRY,-38.4,146.65,658.4,27.14,15.38,12.38,15.66,93.67,142.89,117.49,13.7,350.37,412.25,357.75,289.14,39.39,50.73,43.68,30.71,164.51,1409.51,8.75
609,78,85016,BUSHY,-37.867,147.017,40,43.26,20.27,6.09,24.91,56.99,67.93,49.99,7.29,147.94,126.53,165.91,160.01,19.96,24.2,26.24,17.08,87.48,600.39,6.93
610,52,85017,CALLIGNEE,-38.383,146.6,549,29.34,16.42,19.29,11.36,75.01,132.1,107.9,18.27,323.09,398.18,334.62,239.54,55.02,68.14,56.9,38.92,218.98,1295.43,6.03
611,58,85027,FERNBANK,-37.9,147.3,76,20.4,19.61,6.69,23.5,69.47,71.08,56.62,8.27,163.54,148.79,186.61,178.69,22.62,28.55,28.19,19.76,99.12,677.63,7.09
612,76,85028,FISH,-38.72,146.063,70,10.5,18.15,12.3,14.71,47.19,89.14,84.76,13.79,251.26,318.44,273.18,173.93,40.16,52.43,44.29,28.6,165.48,1016.81,6.23
613,41,85032,FUMINA,-37.95,146.133,434.3,65.98,18.38,12.41,12.73,59.58,78.05,95.57,14.76,275.43,283.15,347.47,242.48,43.46,51.98,48.81,33.24,177.49,1148.53,6.52
614,71,85034,GLENMAGGIE,-37.909,146.805,95,62.58,19.95,7.83,18,60.8,53.81,53,10.52,158.15,125.67,183.36,168.26,29,35.8,36.72,24.59,126.11,635.44,5.05
615,102,85040,FISH,-38.691,146.149,145,6.13,17.61,8.55,18.46,48.08,75.24,85.99,11.12,262.82,315.24,274.66,179.77,32.22,42.13,36.58,22.51,133.44,1032.49,7.84
616,65,85060,MOORMURANG,-37.9,147.5,81,11.7,19.52,6.06,24.45,63.7,74.07,54.71,7.54,167.8,150.31,161.94,175.57,21.22,26.11,25.2,18.03,90.56,655.62,7.3
617,66,85068,PAYNESVILLE,-37.95,147.7,3.7,0.77,19.55,6.36,20.56,58.75,59.49,55.89,8.4,172.17,153.17,171.04,174.4,24.12,29.41,27.8,19.49,100.82,670.78,6.84
618,65,85072,EAST,-38.116,147.132,4.6,25.04,19.83,8.12,17.52,51.48,44.99,50.17,11.5,151.36,134.15,174.34,141.98,32.03,41.77,39,25.18,137.98,601.83,4.43
619,90,85076,STRADBROKE,-38.267,146.917,210,26.66,18.63,7.4,21.73,50.97,58.15,55.53,9.37,164.92,173.06,177.17,151.66,26,35.11,31.37,19.9,112.38,666.81,5.97
620,44,85083,TINAMBA,-37.9,146.8,57.9,63.6,19.75,7.41,20.11,55.35,49.65,49.67,9.41,140.5,127.48,166.02,163.24,25.8,32.09,32.29,22.77,112.95,597.24,5.3
621,36,85105,HAZELWOOD,-38.288,146.49,156.9,41.98,17.83,11,15.44,42.91,61.65,67.06,13.49,194.08,223.48,229.59,158.27,37.67,52.14,44.5,27.5,161.81,805.42,4.97
622,29,85109,BINGINWARRI,-38.6,146.4,187,9.49,17.40,11.79,13.41,67.12,107.1,92,14.38,276.18,310.92,291.8,228.07,42.59,51.83,45.45,32.79,172.66,1106.97,6.41
623,35,85113,DARNUM,-38.2,146,113,42.53,18.93,11,15.69,45.67,76.84,78.26,13.36,228.75,265.56,270.54,171.78,37.86,52.8,43.6,26.17,160.43,936.63,5.86
624,30,85118,GOONA,-37.95,147.6,34,4.05,19.40,5.23,27.87,54.47,64.6,54.16,6.42,157.9,161.77,159.99,171.64,17.8,22.2,21.5,15.77,77.27,651.3,8.7
625,32,85127,NEERIM,-37.95,145.967,427,52.57,17.84,9.31,16.81,54.29,84.22,97.8,11.94,285.68,334.04,328.72,224.55,33.97,45.59,39.59,24.19,143.34,1172.99,8.22
626,30,85131,NOOJEE,-37.9,146,359,58.32,18.10,9.83,16.43,57.52,108.78,117.87,12.27,329.33,456.2,378.66,251.54,33.9,48.5,39.93,25,147.33,1415.73,9.69
627,26,85140,MOONDARRA,-37.95,146.283,311.2,81.02,17.91,9.42,15.61,74.99,101.68,112.93,12.05,300.61,362.85,410.61,282.54,32.5,44.12,40.54,27.54,144.7,1356.61,9.41
628,45,85148,WOODSIDE,-38.524,146.881,25,9.41,18.57,7.22,18.71,57.55,50.64,57.68,9.7,172.59,178.32,192.42,149.29,26.93,36.24,32.58,20.58,116.33,692.62,5.95
629,25,85150,HAZELWOOD,-38.293,146.388,85,42.79,18.76,11.68,15.36,37.56,54.08,59.23,13.62,177.74,188.13,205.58,135.51,38.56,53.28,44.4,27.52,163.76,706.96,4.36
630,55,85160,DARRIMAN,-38.419,146.966,45,11.39,18.95,6.84,17.38,55.21,43.34,54.3,9.78,156.44,158.04,183.24,153.07,26.85,35.93,32.85,21.6,117.23,650.79,5.55
631,38,85162,BOOLARRA,-38.382,146.274,91.4,33.53,17.73,10.87,15.34,43.33,70.52,79.46,13.75,215.32,286.07,280.5,171.99,38.53,53.42,46.08,26.95,164.98,953.88,5.78
632,42,85163,YANAKIE,-38.792,146.18,10,1.98,18.19,9.93,16.26,41.47,67.87,73.85,12.31,214.55,293.35,239.67,138.07,34.52,49.64,39.6,24.02,147.78,885.64,5.98
633,39,85179,BULN,-38.103,145.972,195,45.76,18.73,9.97,15.87,47.73,75.02,82.72,12.35,224.77,269.19,300.24,198.99,34.21,46.38,41.62,26,148.21,993.19,6.72
634,39,85183,BUFFALO,-38.657,146.006,30,17.93,18.75,9.97,15.87,46.87,68.69,79.27,11.96,226.66,298.79,261.97,164.42,33.9,46.72,39.21,23.64,143.47,951.84,6.68
635,30,85194,LARDNER,-38.181,145.889,146,34.88,18.53,10.9,14,48.19,74.14,84.91,13.25,231.07,279.96,310.13,198.68,37.43,49.97,44.5,27.07,158.97,1019.84,6.43
636,39,85195,WILLOW,-38.065,146.169,155,70.14,18.61,9.61,16.49,51.96,57.67,75.23,12.29,205.53,232.61,274.61,190.96,33.31,45.82,41.79,26.59,147.51,903.71,6.11
637,27,85277,NOOJEE,-37.904,145.972,275,56.16,18.31,10.07,13.96,50.9,65.57,92.64,13.8,235.41,315.96,335.87,222.78,37.81,52.74,45.41,29.41,165.37,1110.02,6.69
638,26,85278,ABERFELDY,-37.72,146.389,495,106.41,17.66,10.27,16.5,58.23,76.14,81.39,12.93,185.07,308.29,295.08,185.67,31.31,51.92,44.04,27.42,154.69,974.11,6.27
639,41,86010,BORONIA,-37.85,145.3,144,26.16,18.49,12.95,15.34,55.88,74.71,79.11,13.56,249.55,235.57,268.11,194.89,39.73,52.9,43.66,26.46,162.75,948.12,5.92
640,37,86014,BURWOOD,-37.867,145.15,91.4,16.25,19.07,7.59,18.65,52.49,35.9,59.83,10.77,183.99,166.47,204.83,163.02,30.14,40.27,36.22,22.7,129.33,718.31,5.54
641,31,86019,CAULFIELD,-37.9,145.033,51.5,4.09,19.32,8.06,18.19,50.65,43.8,62.79,11.45,194.75,173.69,214,169.74,32.9,42.61,38.97,22.71,137.19,752.18,5.47
642,49,86029,BEACONSFIELD,-38,145.417,213.4,24,18.42,12.02,13.08,60.62,75.97,91.3,14.5,282.49,280.55,313.96,218.35,41.57,54.76,47.18,30.51,174.02,1095.35,6.31
643,53,86052,HEALESVILLE,-37.6,145.5,250,58.6,18.20,9.93,16.68,70.44,70.76,102.68,12.59,286.73,317.68,372.32,253.91,34.7,48.96,41.45,25.77,150.88,1230.64,8.16
644,26,86058,KALORAMA,-37.8,145.3,119,30.25,19.04,14.35,14.77,77.5,118.74,101.42,14.66,326.3,324.33,324.69,239.98,43.62,58.92,45.23,28.08,175.85,1215.3,6.91
645,62,86061,KINGLAKE,-37.533,145.333,541,48.53,18.09,11.56,17.05,64.99,90.81,100.14,12.46,290.73,335.8,333.13,243.24,35.68,50.15,38.87,24.87,149.57,1202.9,8.23
646,82,86063,LANG,-38.266,145.569,18,5.37,19.27,9.24,17.67,46.92,57.65,71.14,11.58,207.39,234.46,241.59,169.58,32.76,44.76,38.55,22.83,138.9,853.02,6.23
